stop_id,stop_code,stop_name,stop_lat,stop_lon
0,U01761,Adarsh Nagar / Bharola Village,28.715917,77.170867
1,DC4248,British High Comission,28.598533,77.191383
2,U02398,Azad Market,28.6647,77.2084
3,U02416,Kidwai Nagar,28.5757,77.2097
4,DC4271,Rashid Market,28.6502,77.278667
5,U03074,Nehru Nagar,28.56915,77.253883
6,U02904,Sunder Nagar,28.602217,77.2404
7,DC4225,Suraj Mal Vihar,28.661283,77.303517
8,U02563,National Archives,28.6147,77.2185
9,U02922,Darya Ganj,28.6460833333333,77.2404
10,U00314,Nangli Sakrawati,28.614667,77.0034
11,U01623,B-4 Keshav Puram,28.68755,77.1625
12,U99637,Bawana Village,28.801917,77.039067
13,U00086,Mitraon Village,28.608213,76.947336
14,U00193,NajafGarh Dhansa Stand,28.6115,76.977817
15,U03678,Super Bazar,28.61335,77.3162
16,U99639,Kapashera Crossing,28.528867,77.08675
17,U03409,Batla House,28.562317,77.2861
18,U00429,Karala Village,28.7315,77.037
19,U00786,Manglapuri / Palam Village,28.5893166666667,77.08635
20,U02926,Delhi Gate (JLN Marg),28.640024,77.238077
21,U00828,Udyog Nagar,28.6803,77.0893
22,U01798,Ashok Vihar Water Tank,28.687017,77.173667
23,DC4148,Centaur Hotel / New Custom House,28.553099,77.103543
24,DC3956,Bhagwan Mahavir Hospital,28.687467,77.118117
25,U03522,Badarpur Village,28.502067,77.300033
26,U03766,Mayur Vihar Phase 3 Crossing,28.6018,77.32735
27,DC4394,Ranhola Extension,28.657906,77.043018
28,NS0252,COD Ring Road,28.613,77.1367166666667
29,DC4294,Samrat Enclave,28.685237,77.140696
30,DC4540,P S Narela,28.853365,77.088567
31,U02690,ISBT Nityanand Marg,28.668342,77.225091
32,U03580,Nand Nagari Depot,28.69905,77.306183
33,DC0008,Karala Crossing,28.7316,77.0319
34,U01038,Subhash Nagar Crossing / Mukherji Park,28.64192,77.108859
35,U01075,Rohini Depot 1 Sec 6,28.71645,77.113467
36,U00305,Chhawla Village,28.5613,77.0021
37,U02615,Ayurvigyan Nagar,28.5604,77.2214
38,DC3691,A-3 Janak Puri,28.619633,77.079183
39,U00430,Mundka Xing,28.682267,77.035917
40,U02162,Roop Nagar,28.6842333333333,77.2023166666667
41,U03695,Jhilmil Xing,28.6763,77.3175
42,U02486,Panchsheel Club,28.543183,77.213617
43,DC4371,Rishal Garden,28.661717,77.04875
44,U01934,Anand Parvat Terminal,28.657113,77.1846
45,DC3979,Zafrabad School,28.68345,77.275017
46,U01725,Shalimar Bagh (Ring Road),28.7033,77.1689
47,DC3777,Balak Ram Hospital,28.707127,77.22279
48,U02525,Hauz Rani,28.5294,77.2159
49,U02714,PS Kamla Market,28.6429,77.2267
50,U02599,Timarpur,28.7012333333333,77.2212666666667
51,U00304,Chhawla Village,28.561492,77.001912
52,U01543,Shadipur Depot,28.653117,77.1555
53,DC3568,Dwarka More Metro Station (Sewak Park),28.619332,77.032508
54,DC3545,NajafGarh Delhi Gate,28.61255,76.986917
55,DC1101,Okhla Depot IV CWS II,28.518333,77.284867
56,DC0058,Mukharji Nagar Tank,28.7103,77.2111
57,U01621,B-4 Keshav Puram,28.687583,77.162267
58,U02119,DB Gupta Market,28.651733,77.1946
59,U02769,Pragati Vihar,28.5879,77.2293
60,U03006,ITO Ring Road,28.629817,77.24665
61,U00494,Sultan Pur Crossing / Poothkhurd,28.767867,77.049417
62,DC0114,Kalka Ji Crossing,28.55735,77.26965
63,U02369,Shri Ram College,28.689065,77.206953
64,U00375,Chanchal Park,28.646241,77.021823
65,U01449,Kathuria Public School (Sai Darbar Mandir),28.5309,77.146333
66,U01308,Naraina Vihar,28.627517,77.134183
67,DC3854,Prehlad Vihar (Deep Vihar),28.7348,77.0872
68,U01784,Moti Bagh Gurudawara Nanakpura,28.5848,77.1722
69,U03195,Laghu Udyog Sansthan(ModiMill),28.555533,77.265167
70,DC4211,Shalimar Bagh A Block,28.704881,77.169817
71,DC4188,The Uppal Hotel,28.536233,77.102017
72,U02866,Lady Shri Ram College,28.559,77.2373
73,U99725,AkbarRoad,28.61055,77.226083
74,U00761,APS Colony,28.574833,77.141583
75,DC4454,Purani Basti Rewla Tajpur,28.569584,76.977685
76,DC4231,Vivek Vihar Terminal,28.668333,77.314417
77,U01822KWP,Kewal Park,28.7138,77.1799
78,DC3936,National Law University Delhi,28.598367,77.023583
79,DC0099,Onida Factory,28.513,77.2976
80,U02282,Race Course,28.5966,77.2033
81,U01372,Haidarpur Water Works,28.72155,77.140383
82,U02453,BBM Cluster Depot,28.703583,77.210683
83,U03353,Shakarpur,28.6338,77.28215
84,U01357,Punjabi Bagh East,28.6711,77.1393
85,DC4125,Ramesh Park,28.635617,77.26965
86,U03162,SNPD,28.561333,77.260117
87,U00385,Bawana Depot,28.803894,77.028469
88,DC4019,Dauralla Border,28.507925,76.896927
89,DC4517,Chandpur Xing,28.751714,77.014508
90,U00949,Shahbad Dairy Block A,28.7458,77.0985
91,DC3631,Palam Colony Flyover,28.51395,77.091517
92,DC4709,Dabri Crossing (Pankha Road),28.613716,77.085675
93,U00302,Sir Chhotu Ram Polytechnic,28.707177,77.001084
94,U02303,Aurobindo College,28.5327,77.2046
95,U00860,Sunder Vihar,28.6635,77.09225
96,U02043,Jia Sarai,28.5483,77.1897
97,NS0391,Ridge Road,28.632683,77.18875
98,DC4062,C2D Janakpuri,28.614332,77.08708
99,U01432,DAV School,28.6998,77.1452
100,U99774,Mata Din Kaur Public School,28.5977,76.8988
101,DC3797,Natthupura,28.768867,77.180733
102,U01817,South Moti Bagh,28.578,77.175
103,DC3751,Shaheed Bhagat Singh Marg,28.63325,77.212283
104,U02964,Pumposh Enclave,28.5437,77.2438
105,U03604,Trilokpuri 13 Block,28.612817,77.306183
106,U03101,Tara Apartment,28.522667,77.25545
107,U99914,ISBT Kashmere Gate,28.666867,77.229367
108,U00503,Om Vihar,28.621124,77.051543
109,DC0111,Samaspur Jagir Village,28.615767,77.285467
110,U03030,Narmada Apartment,28.527104,77.251689
111,U01758,APS Colony,28.5744,77.142067
112,U01302,Naraina Vihar,28.625783,77.134233
113,U99799,Shaheed Bhagat Singh Nagar,28.725017,77.029167
114,U00900,Peera Garhi Chowk,28.6783,77.0947
115,U02947,DPS / Police Station Nizamuddin (Lodhi Road),28.593133,77.241917
116,DC3671,Kamal Cinema,28.565108,77.198924
117,U00009,Dhansa Village,28.557833,76.867383
118,U01717,South Patel Nagar (Metro Station),28.6453,77.1683
119,DC3648,ARSD College / Dhaula Kuan,28.590667,77.1683
120,U00482,Sukhbeer Nagar,28.727633,77.04895
121,DC4334,Goyla Dairy,28.579766,77.021478
122,DC4500,New Anaj Mandi,28.618964,76.974469
123,DC4185,Dwarka Sec-21 Crossing,28.550845,77.056046
124,DC3548,Prem Nursary,28.610183,76.971267
125,DC4208,Wazir Pur Industrial Area/ Ashok Vihar Crossing,28.701641,77.167185
126,DC4477,Bharthal Village (Shyam Mandir),28.543055,77.043846
127,U02629,Ayurvigyan Nagar,28.5614,77.2222
128,U01101,Rohini Sec 7/9,28.7136,77.1171
129,DC0028,St Stephen Hospital,28.6674,77.2143
130,U00255,Durga Vihar,28.5964,76.9904
131,U00819,C-2-B Janakpuri,28.6219,77.0885
132,U03531,Saraswati Kunj,28.623867,77.301483
133,U99990MC,Central School (MCKR),28.562733,77.2328
134,U01828,Andheria More (Chhatarpur Metro Station),28.507994,77.175266
135,U02700,Ludlow Castle,28.6724,77.226
136,U03327,Shakar Pur School Block,28.6271,77.279467
137,DC3877,TilangPur Kotla,28.649733,77.027233
138,U00500,Rishal Garden,28.6619,77.048783
139,U01371,Punjabi Bagh Terminal,28.675467,77.1404
140,U01966,Model Town-III,28.7061,77.1853
141,U02346,Kendriya Terminal (Pt. Pant Marg),28.62155,77.2062166666667
142,U03052,Railway Road Bridge,28.610933,77.2518
143,U00615,Sultan Puri Crossing,28.682317,77.068783
144,U03126,Shastri Park,28.6726,77.2571
145,U03501,Government Senior Secondary School,28.6317,77.2979
146,DC0079,Chirag Dilli,28.5415,77.2296
147,U01128,PS Mayapuri,28.625217,77.119867
148,DC4414,KharKhari Rondh,28.561696,76.941952
149,DC105,Shaheen Bagh Thokar No 8 (A F Enclave ),28.54925,77.303983
150,U02901,ITPO Gate No. 3,28.6155,77.24015
151,DC4437,Shiv Enclave Dichau,28.623999,76.984556
152,U00217,Dichau Chowk,28.6173,76.983867
153,DC4460,Pandwala Village,28.5657,76.963135
154,U01158,Sadar Bazar,28.5954,77.1227
155,U01977,Model Town III,28.7059333333333,77.18525
156,U01333,Wood Market (Mansarovar Garden),28.638199,77.132423
157,U02757,Bharti Nagar,28.596683,77.228717
158,DC3959,Sunehari Pulla Depot / Jawaharlal  Nehru Stadium Terminal,28.5901157,77.2334405
159,U01288,Shankar Vihar/ National Highway 8,28.566367,77.134283
160,U01236,Mahipal Pur Village,28.54571,77.126809
161,U02237RS,Ravinder Rang Shala,28.640867,77.194933
162,U01835,R K Puram Nab,28.56125,77.1763
163,U00194,Tikri Hospital,28.6869,76.9783
164,U01114,Rangpuri,28.542143,77.118347
165,U02481,Udyog Bhawan,28.6126,77.2122
166,U02515,Vishwa Vidyalaya Metro Station,28.695083,77.215367
167,DC4397,ShivRam Park,28.667833,77.055183
168,U00736,Kapashera Border,28.5217,77.082117
169,U02176,Sant Nagar A-1,28.7387,77.1975
170,U01025,D Block Janakpuri,28.60785,77.10395
171,U03246,B-Block Yamuna Vihar,28.703117,77.270033
172,DC3837,APS School Dhaula Kuan,28.601533,77.168417
173,U01057,DDU Hospital,28.6282,77.111
174,U99789A,Rani Khera Bus Stand,28.7031,77.0279
175,U02112,Rana Pratap Bagh,28.6882666666667,77.1937
176,DC3625,Swaroop Nagar JJ Colony,28.7559,77.162867
177,U02468,HaujRani / MaxHospital,28.5283,77.212
178,U02291,Model Basti,28.6572,77.2038
179,U01096A,More Lines,28.583167,77.116567
180,DC3860,Kirari Railway Xing,28.686583,77.0625
181,U01630PC,Indian AirLine Colony/Priya Cinema,28.558583,77.158
182,U02596,South Extension,28.568367,77.22315
183,U01272,PitampuraMetro Stn (MadhuvanChowk),28.7029,77.1325
184,DC4523,Ishwar Colony,28.794758,77.029958
185,U02309,SJ Hospital,28.569483,77.204517
186,U01498,TV Tower (Power House),28.6997,77.1512
187,DC3982,Shiv Mandir,28.689933,77.28395
188,U01837,Shastri Nagar E Block,28.6711,77.17605
189,U02652,DIPSAR College of Pharmacy,28.5161,77.2237
190,U00932,Tilak Nagar,28.6367,77.097
191,U99881,Gagan Vihar,28.6455,77.2979
192,U02288,Gole Market,28.6347,77.2037
193,DC4374,Ranhola II,28.654617,77.038017
194,DC4703,Chandan Market Greater Kailash- II,28.531741,77.245673
195,DC3774,Christian Kabristan,28.7307,77.1902
196,U03772,Seemapuri Old,28.681,77.3279
197,U01035,New Multan Nagar,28.67755,77.1116
198,U00446,Swarn Park,28.6824,77.0408
199,DC4311,Dichau Kalan Depot,28.629012,76.997728
200,U03662,Gazipur Village,28.63225,77.315683
201,DC3688,Shaheen Bagh Thokar No. 8 (AF Enclave),28.549117,77.303983
202,DC3588,Garhi Maidu,28.6992,77.255533
203,U01467,Power House,28.673017,77.14725
204,U03384,East Azad Nagar,28.666167,77.283917
205,U02747,Bharti Nagar,28.5978,77.228467
206,U02105,Pusa Road Petrol Pump Sadhu Vaswani Marg,28.644583,77.192833
207,DC3542,Nangli Dairy,28.619772,77.017944
208,DC3565,Arjun Park,28.618,77.012067
209,DC0078,Alaknanda Apartments,28.525582,77.253435
210,U02462,HaujRani / MaxHospital,28.5285,77.2119
211,U00484,Sukhbeer Nagar,28.727533,77.04895
212,DC0055,CV Raman ITI,28.72095,77.20015
213,U01196,Rajdhani College / Raja Garden,28.654783,77.125417
214,U01859,RK Puram Sec-1,28.5642,77.1785
215,U02523A,Shivaji Stadium Terminal,28.63275,77.215633
216,U01541,Maharana Pratap Chowk,28.588067,77.1509
217,U00262,Deenpur Village,28.5933,76.9918
218,U01546,Punjab Kesari (Subhash Palace Depot),28.696,77.1558
219,U02272,Gole Market,28.6352,77.2031
220,DC0117,Ali Village,28.516117,77.296567
221,DC3711,Qamruddin Nagar Terminal,28.682022,77.054099
222,U01080,Janak Setu,28.6104,77.1138
223,DC0011,Avantika Crossing,28.69875,77.0964
224,DC3757,Modern School  Vasant Vihar F Block,28.559967,77.157317
225,U00383,TilangPur Kotla,28.649406,77.027234
226,DC3857,Krishna Colony,28.746817,77.087767
227,U99879,Delhi University,28.688417,77.214833
228,U00979,Mangolpur Kalan Village,28.6956166666667,77.1011833333333
229,U01014,Mangolpuri School,28.69465,77.105367
230,U02789,Sheikh Sarai More,28.5328,77.2306
231,DC4543,C P J College,28.857652,77.095746
232,U00449,Dwarka Sec 13-3 Xing,28.602567,77.040983
233,U00592,Nangloi Metro Station,28.682006,77.064933
234,DC4520,Shri Krishna Gaushala,28.779314,77.021694
235,U01013,Meenakshi Garden,28.639983,77.10435
236,U01082,Swarg Ashram,28.631,77.1149
237,U00982,Rithala Village,28.717233,77.1014
238,U03046,Garhi Gaon,28.5621,77.2512
239,U00767,CRPF Camp,28.645917,77.084483
240,U03029,Nehru Place,28.5486,77.2492
241,NS0257,Thimiyan Park,28.60265,77.133483
242,U03790,Shalimar Garden Crossing,28.6885,77.3303
243,DC4314,Dichau Chowk,28.616915,76.983843
244,U02237,Meghdoot Bhawan,28.644,77.200983
245,U03640,Yojana Vihar,28.65965,77.315183
246,U01331,Pittam Pura R U-Block,28.7111,77.1371
247,DC102,Tagore Garden D Block,28.652783,77.111967
248,U03521,Prince Apartment,28.63095,77.3008
249,DC3734,Pusta No 5 Sonia Vihar,28.734583,77.246633
250,U02193,Burari Village,28.754,77.1988
251,U03277,Holy Family Hospital,28.561083,77.275417
252,DC4122,Laxmi Narayan Temple,28.632285,77.199257
253,DC4022,Jhuljhuli Crossing,28.531783,76.9071
254,U02606,Novelty Cinema,28.6614,77.2211
255,U03433,Dharma Apartment,28.620183,77.2903
256,DC4082,Vivek Vihar Terminal,28.667933,77.3145
257,U00190,Nazafgarh Dhansa More,28.612021,76.978565
258,U00389,Kakrola More,28.618905,77.029949
259,U01582,GTK Depot,28.731183,77.158617
260,U03587,Hasanpur Depot,28.635993,77.306815
261,DC3917,Loha Mandi,28.640183,77.1455
262,DC4251,Teen Murti,28.605717,77.199067
263,U00692,M Block Vikaspuri,28.6386,77.078
264,U02702,Ambedkar Nagar Terminal,28.515951,77.225536
265,U02841,Delite Cinema,28.6412,77.2352
266,U03204,Ishwar Nagar,28.5616,77.266217
267,U99643,Kirari Lal Mandir,28.698,77.055467
268,DC3939,Shivani Apartments/ Kunj Vihar Sector-12 Dwarka,28.594117,77.035617
269,DC4059,Babarpur Extension,28.690727,77.278602
270,U03175,Tughalqabad Village,28.509067,77.265117
271,U03185,Govind Puri Metro Station,28.545217,77.2641
272,U02424,Bhavishya Nidhi Enclave,28.5422,77.2097
273,U00226,PS Najafgarh,28.6096,76.9827
274,U00813,Dabri Crossing (Pankha Road),28.613374,77.087756
275,U02830,Patiala House,28.6164,77.2339
276,U00906,Desu Colony Janak Puri,28.609871,77.095047
277,DC4537,Old Anaj Mandi,28.845696,77.088817
278,U02543,Palika Kendra,28.628567,77.216783
279,U99892A,Garrison Engg.,28.6053666666667,77.1474333333333
280,DC0005,Rohini West Metro Station,28.715,77.115
281,DC4391,PS Ranhola,28.65355,77.035417
282,DC4145,IGI Airport Terminal 2 (Air India Office),28.557092,77.091787
283,U00662,Gurudwara Vikaspuri,28.6385,77.0743
284,DC4497,CRPF Jharoda,28.638831,76.960643
285,U01814,B2 Block Ashok Vihar Ph II,28.693274,77.177899
286,DC4474,Mundhela Khurd School,28.616066,76.896431
287,U00716,Jwala Puri / Nangloi Depot,28.681417,77.0791
288,DC3976,Seelampur Market,28.673567,77.269983
289,U01939,Bhartiya Sadhu Samaj,28.6038,77.184
290,U03598,GTB Hospital Xing,28.6893,77.3077
291,U02673,Swami Nagar,28.5423,77.2248
292,U00566,Madhu Vihar,28.599883,77.0614
293,DC0129,East Vinod Nagar Depot,28.6219,77.300783
294,U02452,Kalawati Hospital,28.6381,77.2108
295,U01043,Rohini Depot - 3,28.6952,77.1094
296,DC3694,Bharat Nagar,28.566738,77.269676
297,U02862,Red Fort,28.6577,77.2371
298,U00267,Goela Dairy Crossing,28.591193,76.993282
299,U00344,BSF Campus Chhawla,28.547717,77.009283
300,U00680,Janakpuri C-1,28.6182,77.077017
301,U02783,J L Nehru Stadium,28.5841,77.2301
302,U02418,Gurudwara Bangla Sahib,28.625333,77.209333
303,U00867,GSKV School No-1 B-Block,28.6247,77.0922
304,U00002,Dhansa Border,28.562483,76.842883
305,DC4168,CGHS Dispensary,28.644633,77.209433
306,U01720,Shalimar Bagh(Ring Road),28.7037333333333,77.1690166666667
307,DC4560,JJ Colony Bawana Crpf Camp,28.806836,77.04801
308,U03010,Indira Gandhi Stadium,28.6328,77.2472
309,DC3920,Sainik Enclave/Vikas Nagar Nala Road,28.635083,77.025383
310,U00870,C-3 Janakpuri,28.615417,77.092583
311,U01332,Rang Puri Pahari,28.5379,77.1369
312,U02533,Saket Crossing,28.5179,77.216283
313,U00272,Ghevra Crossing (Kanjhawala Road),28.685717,76.994533
314,U00343,BSF Campus Chhawla,28.5479,77.00915
315,DC3897,M Block Greater Kailash- II,28.534913,77.243555
316,U00444,Ranhola Village,28.6561,77.04065
317,U02661,Lodhi Colony 18-Block,28.586733,77.22425
318,U02199,Burari Transport Authority,28.730567,77.198467
319,U02366,Shri Ram College,28.6891,77.2068
320,U02506,Krishi Bhawan / Rail Bhawan Metro Station,28.614867,77.212383
321,DC3605,Swaroop Nagar JJ Colony (GT Road),28.7581333333333,77.1480833333333
322,DC4480,Bharthal Chowk (Bharthal Road),28.554056,77.050407
323,DC4039,East Vinod Nagar Depot,28.620079,77.30087
324,U02882,Vayu Sena Bad (Tigri),28.5129,77.2385
325,DC0048,Rithala Crossing,28.7116,77.1074
326,DC3651,CGO Complex,28.588083,77.233667
327,DC4434,Dichau Kalan School,28.642699,76.986388
328,U01754,IA Block Ashok Vihar,28.68605,77.1704333333333
329,U00291,Sai Baba Mandir (Nazafgarh),28.61375,76.99985
330,U01131,Rajouri Garden,28.648821,77.122615
331,U02426,Khalsa College,28.6947,77.2097
332,U02753,Modern School,28.6278,77.2285
333,U01068,Zunk Market,28.618117,77.112183
334,U00211,Tikri Piyau / Azad Hind Gram,28.686817,76.979933
335,U01178,Mahipal Pur Crossing,28.548083,77.125267
336,U04003A,Nehru Place Terminal,28.548512,77.257157
337,U01269,Basai Darapur / Ramesh Nagar,28.653,77.1323
338,DC4308,DTC Apartments,28.697529,77.134098
339,U02339,Panchsheel Club (Sarv Priya Vihar),28.54345,77.207483
340,U03173,Kalkaji Mandir (MaaAnandmayeeMarg),28.547767,77.262833
341,U02123,Talkatora Stadium Garden,28.621667,77.194533
342,U99854A,Okhla Extension (Abul Fazl Encalve),28.5469,77.3066
343,U03181,Kalkaji Mandir,28.55205,77.2645
344,U03043,Rajghat Gandhi Darshan,28.6389,77.2502
345,DC3528,Kair Depot,28.618117,76.930783
346,U00646A,Nangloi JJ Colony,28.682267,77.059767
347,U03013,Raj Ghat,28.6417,77.2471
348,DC3840,Raja Puri,28.60428,77.05483
349,DC4377,Kotla Vihar Phase I,28.65105,77.0302
350,U03683,Maharaj Pur Check Post,28.643267,77.316583
351,U02941,Gupta Market,28.564833,77.241433
352,DC3771,Badli Telephone Exchange,28.74485,77.13265
353,U00751,Prehladpur Village,28.7512,77.080967
354,NS0313,Hansraj College,28.679067,77.208183
355,DC3628,Dwarka Sec 13-3 Xing,28.602717,77.04115
356,DC4457,Pandwala Khurd,28.562304,76.967114
357,DC4065,Bharti Public College,28.62235,77.09365
358,U02823,Jaipur House,28.6089,77.2333
359,DC4016,Dauralla Village,28.510833,76.895533
360,U03272,Yamuna Vihar Brijpuri,28.702633,77.2737
361,U99966,Power House,28.5058,77.3008
362,U02799,Chirag Delhi,28.540967,77.232083
363,U00478,Maharishi Valmiki Hospital / Pooth Khurd,28.775033,77.047683
364,U02400,Police Station Paharganj,28.646001,77.208094
365,DC3754,Gole Market (Bhai Veer Singh Marg),28.63225,77.205467
366,U03336,Jamiya Millia College,28.56115,77.280117
367,U00535,Prem Nagar,28.621961,77.05731
368,NS0256,Thimiyan Park,28.602817,77.133517
369,U03349,Shahdara (Shyam Lal College),28.67307,77.282696
370,DC4228,Surya Nagar,28.66785,77.32135
371,U01490,Inderpuri A-Block,28.6287,77.1511
372,U01557,Ram Pura (Ashok Park),28.6714,77.157083
373,U03675,NHW-24 Xing (Gazipur Xing),28.630333,77.316283
374,U00491,Kiran Garden,28.62081,77.048338
375,U02048,T B Hospital,28.5283,77.1897
376,U01402,Shakurpur Shiv Mandir,28.680921,77.142863
377,U02591,Prithviraj Road Crossing,28.59745,77.220083
378,U03429,Shahdara Railway Bridge,28.6749,77.2898
379,U02853,Masjid Moth,28.54085,77.236067
380,U01826,Bapu Dham,28.5994,77.1758
382,U99808,Madan Pur Dabas,28.715933,77.027883
383,U01749,RK Puram Sec-9,28.5713,77.1707
384,U03056,C R Park Market 2,28.537903,77.252411
385,U01375,New Moti Bagh B Block,28.66365,77.140683
386,DC4245,Tyag Raj Marg,28.6091,77.202983
387,U02878,Delhi Gate (JLN Marg),28.6400333333333,77.2380333333333
388,DC4291,Shakur Pur JJ Colony/ Britannia,28.684313,77.14563
389,U02244,PNB Geetanjali,28.529313,77.2013
390,DC0031,Wazirpur Depot Road No 41 (Subhash Place Market),28.6937,77.1512
391,DC4331,Nehru Bus Stand Goyla Dairy,28.580514,77.019268
392,DC3668,RK Puram Sec-10,28.5702,77.173167
393,U01071A,Shiv Murti,28.536033,77.1119
394,U02514,Shivaji Stadium Terminal,28.633083,77.21545
395,U99646,Bawana,28.800011,77.035613
396,U03556,Badarpur Border,28.4927,77.303817
397,DC3794,Tahir Pur,28.691367,77.324967
398,U03673,Sunder Nagri,28.6928,77.3162
399,U02820,Turkman Gate / G B Pant Hosipatal,28.6417,77.2333
400,U01926,Bara Bagh,28.7017,77.1828
401,U03478,Meet Nagar,28.70025,77.297667
402,U01398,ISIC Hospital (Verma farm),28.53395,77.1427
403,U01539,C-4 Keshav Puram,28.6904,77.154983
404,U01957,Bharat Nagar Xing,28.6809,77.1846
405,U02699,Old Delhi Railway Station (Fatehpuri),28.660295,77.224901
406,U00012,AIR Force Camp,28.5633,76.8719
407,DC4417,Ghuman Hera School,28.537022,76.922455
408,U03213,DDA Kalkaji Extn,28.526817,77.2669
409,U00445,Harijan Basti,28.707367,77.040317
410,U01549,Shadipur Colony,28.6516,77.1561
411,U03610,Vijaya Laxmi Apartment,28.6289,77.309017
412,DC4268,Radhu Palace,28.636483,77.285567
413,DC3731,Gatta Factory Sonia Vihar,28.730183,77.24575
414,U01098,Rohini Sec-9 /7,28.7138,77.1172
415,U99986,Vikaspuri Xing,28.6276,77.0697
416,U00683,Pooth Kalan,28.71425,77.0770666666667
417,U00401,Karala Crossing,28.731617,77.03235
418,DC4486,Baba Haridass Nagar,28.623725,76.970389
419,U00538,Prem Nagar,28.62211,77.056846
420,U03528,Saraswati Kunj,28.6239,77.3012
421,U00021,Bakkar Garh Xing,28.591717,76.885917
422,U02586,INMAS,28.703583,77.219917
423,U03149,ISBT Sarai Kale Khan,28.588832,77.258796
424,U01990,Hyatt Hotel,28.5702,77.1857
425,U00425,Rama Park,28.619965,77.036719
426,U01945,Subhadra Colony,28.671105,77.184219
427,U03621,Hassanpur Village,28.6363,77.3103
428,U03000,Nizamuddin Extension,28.589233,77.2463
429,U03084,Guru Ravi Das Ashram / Tughlaqabad Extension,28.51945,77.254483
430,U02888,Vayu Sena Bad (Tigri),28.5129,77.2389
431,U01030SB,Shahbad School,28.7456833333333,77.10735
432,U02639,Lodhi Colony,28.591683,77.2235
433,U01162,Metal Forging,28.6298,77.1233
434,U00808,Kapashera Crossing,28.5313,77.08815
435,U01765,Officer Enclave S.P Marg,28.597,77.1713
436,U01363,Pittampura BU-Block,28.7164,77.1396
437,U00685,C1 Janak Puri,28.6178,77.0771
438,U00910,B Block Mangol Puri,28.689117,77.09555
439,U01139,Rohini Sec-16 Xing,28.7437,77.1216
440,U03637,Chand Cinema,28.612983,77.3125
441,DC4340,Police Post,28.577292,77.035195
442,U00996,St. Xavier School Shahbad,28.7456,77.103
443,DC0066,Sunehari Pulla Depot / Jawahar Lal Nehru Stadium Terminal,28.59155,77.233117
444,U01220,Raja Garden,28.650783,77.1262
445,U01880,Bharat Nagar,28.6806,77.1799
446,U03100,Shastri Park,28.6729,77.2553
447,U01006,Pal Colony,28.7235,77.1036
448,DC4194,Dwarka Sec-6/7,28.59012,77.068955
449,DC4440,Dichau Chowk,28.617384,76.983711
450,ST2148,Mori Gate Terminal,28.665873,77.222024
451,U00273,FCI Ghevra,28.692392,76.9942
452,U02319,Bara Hindu Rao,28.6608666666667,77.20415
453,U01386,Samrat Enclave,28.68525,77.14105
454,DC3883,Dhool Siras,28.552849,77.035179
455,DC3577,Shastri Park,28.673083,77.25405
456,U00441,Ranhola II,28.654476,77.038017
457,U01729,South Patel Nagar (Metro Station),28.6454,77.1689
458,U01648,Vasant Lok,28.56035,77.164417
459,U02407,Maidan Garhi Crossing (SDM Court),28.519067,77.2088
460,U02999,Sant Nagar,28.552367,77.246167
461,DC3677,Mangol Puri J Block,28.697888,77.083427
462,U00871,PS Mangol Puri,28.6965,77.091882
464,U01930,New Rajinder Nagar Post Office,28.636825,77.182967
465,DC3783,Mangol Puri Y Block,28.70275,77.0881
466,NS0454,Doulat Ram College,28.6882,77.2063
467,U00560,Kirari Gaon,28.693676,77.060986
468,U03732,Shahdara Border,28.6775,77.323
469,DC4363,Keshav Nagar Mukti Ashram,28.779129,77.179635
470,DC4463,Okhla Village (Temporary),28.562333,77.29185
471,DC4071,Faiz Road,28.648227,77.198819
472,U01385,APS Colony/ Jharera Gaon,28.579433,77.145
473,U01845,Railway Colony (Sardar Paltel Marg),28.600683,77.17805
474,U02072,11 Murti,28.61105,77.1907
475,DC3988,Chhajupur,28.6894,77.287
476,DC3965,Kapashera Village Bijwasan Road,28.52773,77.076142
477,DC3591,Zero Pusta,28.6778,77.256783
478,U03396,Shahdara Terminal,28.674286,77.287117
479,U01248,Madhuban Chowk Outer Ring Road,28.703,77.1298
480,U01393,Kohat Enclave Metro Station,28.6974166666667,77.1421
481,U01330,Punjabi Bagh Terminal,28.66735,77.137317
482,U01782,R K Puram Sec-7,28.5706,77.1727
483,DC3760,Surya Niketan,28.655733,77.310317
484,DC0014,Railway Road Bridge,28.609851,77.251781
485,U02902,Darya Ganj,28.644033,77.24035
486,DC3654,Exchange Store / Civil Lines Metro Station,28.676783,77.224833
487,U02571,Mall Road,28.693617,77.2184
488,DC0136,CRPF Camp / Crown Plaza,28.527867,77.272383
489,U02207,Faiz Road,28.648267,77.199017
490,DC3906,C Block Mangol Puri,28.692367,77.0906
491,U00300,Hiran Kudna Crossing,28.684683,77.000967
492,DC3948,Rani Bagh Railway Colony,28.6839,77.12795
493,U01520,Pandav Nagar,28.650051,77.153678
494,U02785,ISBT Kashmere Gate,28.666756,77.229348
495,U00349,Dariyapur Gaon,28.812783,77.00915
496,U01804,East Patel Nagar,28.6404,77.1742
497,U02455,PS Tughlaq Road,28.599883,77.2112
498,U99926A,Telephone Exchange Karol Bagh,28.64315,77.181917
499,DC4423,KharKhari Rondh,28.56176,76.941887
500,U00453,Mohan Garden,28.620385,77.040795
501,U03760,Mayur vihar Phase-III Crossing,28.601583,77.326033
502,DC4572,Chandpur Xing,28.75134,77.014497
503,DC4380,Chanchal Park,28.646333,77.021767
504,U02345,Gurudwara Rakab Ganj,28.6185,77.206
505,U02417,Kidwai Nagar,28.5735,77.2095
506,DC4403,Nangloi,28.681483,77.06735
507,U02924,Sunder Nagar,28.605117,77.24045
508,U01019,Lajwanti Garden,28.614,77.1062
509,U01017,Visram Chowk,28.70915,77.1055833333333
510,DC0037,Dera Satguru Sewaram Sahai Sec 24/25,28.7297,77.094967
511,U01424,Moti Nagar,28.658615,77.144108
512,DC3737,Check Post,28.739367,77.24745
513,DC3928,Nanak Piyau / DTC Colony,28.69105,77.1927833333333
514,U02741,Central School Lodhi Colony,28.5848,77.22815
515,U03738,Fire Station,28.605067,77.322683
516,U00526,Rajapuri,28.6738,77.0551
517,DC0089,Raghubir Nagar N Block,28.6593666666667,77.11245
518,U02717,Ambedkar Nagar Terminal,28.515935,77.226604
519,DC4317,Chand Nagar,28.645206,77.099338
520,U01291,Pitampura JD Block,28.70185,77.13455
521,U99608,Rajeev Nagar,28.724983,77.058433
522,U00424,Dwarka Sec 13,28.605567,77.036383
523,DC4154,Sarojini Nagar Depot,28.573304,77.190001
524,U02998,Nizamuddin Extension,28.589633,77.2463
525,U02672,Mori Gate Terminal,28.667,77.2247
526,U01692,Pusa Quarters,28.630033,77.166983
527,U01251,Madhuvan Chowk,28.7046,77.13
528,U01777,R. K. Puram Sec-12,28.5757,77.1724
529,DC4131,Le Meridian Hotel,28.619333,77.2176
530,DC4108,RK Khanna Tennis Stadium,28.558333,77.187283
531,U03317,Shakarpur School Block,28.627433,77.279283
532,DC3843,Air Force Officers Flats Dhaula Kuan,28.600967,77.167867
533,U02136,Shakti Nagar Nangia Park,28.68035,77.196233
534,U00774,Major Bhupinder Singh Nagar,28.6469,77.0848
535,DC4446,Daulat Pur Crossing,28.543634,76.970812
536,U01561,Ram Pura (Ashok Park),28.67148,77.157173
537,U01502,Subroto Park (Arjun Path),28.574317,77.151517
538,U01628,Dhaula Kuan,28.60005,77.162017
539,U01994,Qutab Minar,28.5264,77.1861
540,U02290,Padhmini Enclave,28.5498,77.2038
541,DC4592,Majnu Ka Teela Ring Road,28.69765,77.22741
542,U02538,Gandhi Vihar,28.7223,77.2165
543,U01857,Andheria More / Chhatarpur Metro Station,28.509217,77.178967
544,U00233,Najafgarh Delhi Gate,28.6118,76.9856
545,DC4569,Shri Krishna Gaushala,28.779613,77.022005
546,U02647,Ajmeri Gate / Kamla Market,28.6448,77.223733
547,DC4234,ESI Hospital,28.66605,77.310783
548,DC3697,H-3 Vikas Puri,28.645922,77.079312
549,U01085,Ordinance Depot,28.6768,77.1148
550,DC3720,Gurudwara Bangla Sahib,28.628133,77.2094
552,U02732,Defence Colony (Homyopathic College),28.571983,77.227667
553,DC0086,Saiyyad Nagar Dilshad Garden,28.682567,77.33155
554,U01955,Gujranwala Town,28.6996,77.1845
555,DC3820,Sarita Vihar D Block / Madanpur Khadar Village,28.532267,77.296383
556,DC3640,Palam More,28.568033,77.130033
557,U03150,DDA Market Kalkaji,28.530617,77.258533
558,U01681,Jahangirpuri B Block,28.7293,77.1662
559,U03186,Maharani Bagh / Ashram,28.576633,77.26445
560,U00847,Q-Block Mangolpuri,28.6877,77.0913
561,U99985A,Tagore Garden Gurudwara / Holy Child School,28.650417,77.113733
562,U01716,ARSD College (Dhaula Kuan),28.590383,77.168467
563,U00956,Desu Colony,28.6111,77.0989
564,U00955,Fateh Nagar,28.6312,77.09885
565,U02944,ITO,28.6291,77.241517
566,DC4343,Amrohi More,28.574817,77.0513
567,U01024,Mangolpur Police Lines,28.6945,77.1066
568,U03131,DDA Market Kalkaji,28.529982,77.258506
569,DC3943,Sapera Basti Crossing,28.6181,77.336267
570,U01217,Government Press,28.634617,77.127633
571,U03066,Nizamuddin Railway Station,28.586433,77.25305
572,DC3869,Narain DharamKanta,28.670618,77.057884
573,U01829,Anand Parbat Industrial Area,28.6648,77.1754
575,U03294,Okhla Phase 1,28.520517,77.277267
576,U03258,Bharat Nagar Crossing,28.5622,77.2723
577,U02145,Talkatora Stadium,28.6263,77.1965
578,U02388,Malka Ganj Terminal,28.677583,77.2078
579,U02536,Sadhna Enclave,28.542983,77.216433
580,U03431,P S Pandav Nagar,28.6147,77.2903
581,DC0133,Khichdipur,28.624633,77.3095
582,U99828A,Samalka Crossing,28.53795,77.09365
583,U02044,Bhikaji Cama Place,28.568,77.1896
584,DC3806,Satyawati College,28.695345,77.179374
585,U02962,ITO,28.628183,77.24515
586,U03631,GTB Hospital,28.6843,77.311
587,U00991,West Enclave,28.6936,77.1023
588,U02021,Dev Nagar,28.6564,77.1881
589,U03809,Mayur Vihar Phase III A1 Block,28.608717,77.33715
590,U02323,Kendriya Terminal / Gurudwara Rakab Gunj,28.6212,77.2053
591,U02844,Bapa Nagar,28.6057,77.2351
592,U03094,Tara Apartments Terminal,28.523828,77.255068
593,DC4546,Sec A-9 and A-6 Narela,28.851771,77.097849
594,U02930,CGO Complex,28.587033,77.2408
595,U00289,Ghevra Village,28.696417,76.997967
596,U00875,Janak Puri B-3,28.622917,77.09275
597,U00522,ShivRam Park,28.667651,77.055346
598,U00919,Peera Garhi Chowk,28.679533,77.09575
599,DC3743,Chauhan Patti (Terminal),28.754859,77.243323
600,U03041LN,Lajpat Nagar Crossing,28.5643,77.2501
601,U01116,Tagore Garden,28.644217,77.1133
602,DC3594,Shastri Park DMRC Depot,28.674167,77.243433
603,U02548,Nirman Bhawan,28.61035,77.217217
604,U00729,District Centre Outer Ring Road,28.6327,77.0811
605,U03451,Radheypuri,28.655,77.2919
606,DC3680,Gazi Pur DDA Flats,28.6229,77.319767
607,DC3531,Kair Depot,28.618288,76.930672
608,U01042,Lajwanti Garden,28.6129,77.1096
609,DC4068,Janki Devi College,28.641629,77.1898
610,U03728,Surya Nagar,28.6668,77.3217
611,U02553,Prithvi Raj Road Crossing,28.5965,77.2174
612,DC4217,Shalimar Bagh BA Block,28.708633,77.161828
613,U03376,East Azad Nagar,28.666617,77.2832
614,U03644,Dilshad Garden School,28.6808,77.3136
615,U02738,JLN Marg,28.6421,77.22785
616,U03054,Rojdoot Hotel,28.5827,77.2525
617,U01801,South Moti Bagh,28.5778,77.1742
618,U01838,Jahangir Puri Outer Ring Road,28.73425,77.17645
619,U01744,Daya Basti Flyover,28.666346,77.169943
621,U03097,Gamri Extn Pusta No.5,28.6957,77.2551
622,U01542,Shadipur Depot,28.6536,77.1553
623,U01452,Badli Xing,28.7284,77.1463
624,U01512,Mukraba Chowk,28.7323,77.1521
625,U99882A,Jahangirpuri GT Road (Metro Station),28.7257,77.163
626,U01555,Todapur Village,28.624,77.1565
627,U02117,DB Gupta Market,28.651809,77.19481
629,DC3657,Ram Jas Road,28.658993,77.191289
630,DC0069,Khayala More/ Subhash Nagar Crossing,28.642984,77.10738
631,DC3903,PS Bawana,28.8065666666667,77.023
632,U02616,Delhi Vidhan Sabha,28.6878,77.2214
633,U02435,Kidwai Nagar (INA Colony),28.5761,77.2099
634,U01143,Rajouri Garden,28.648433,77.120783
635,U02480,SJ Madrasa,28.586683,77.212767
636,U03769,Mayur vihar Phase-III Crossing,28.6017,77.32755
637,U03435,Surajkund Crossing,28.5017,77.291
638,DC4214,Shalimar Bagh BH Block,28.715233,77.156869
639,U02618,Vigyan Bhawan,28.610033,77.221967
640,U01481,R R Line,28.596167,77.1504
641,U00832,Mangolpuri Y Block,28.702717,77.089517
642,U02877,Golf Club / Sunder Nagar,28.601367,77.237883
643,U03588,Balco Apartment,28.6299,77.3067
644,DC3925,C-1 Keshav Puram,28.683117,77.1545
645,U00015,Qadipur,28.5782,76.8798
646,DC4420,Ghuman Hera School,28.537115,76.922376
647,U03482,New Rajdhani Enclave,28.642483,77.29635
648,U01812,Daya Basti,28.6649,77.1747
649,U02634,Super Bazar,28.632583,77.22305
650,U02036,Chowki No 2 / Gulabi Bagh Crossing,28.6769833333333,77.1889
651,U03015,IP Power Station / ITO Ring Road,28.624517,77.247117
652,DC4114,Geeta Colony Block 5,28.653174,77.271397
653,DC0034,Power House Rohini Sec 24,28.727167,77.080283
654,U00511,Qamruddin Nagar Terminal,28.682183,77.054367
655,U00312,Kanjhawala Depot (Narela Road),28.727519,77.002541
656,DC3634,IOL,28.57535,77.116967
657,DC3534,Tilak Nagar,28.63545,77.09295
658,U99782,East Vinod Nagar Depot,28.6227,77.3039
659,U00734,Krishna Park,28.6392,77.0817
660,U00025,Mata DanKaur Public School,28.597584,76.899172
661,U03718,Gazipur Dairy Farm,28.6203,77.3208
662,U99791,Shaheed Bhagat Singh Nagar,28.724891,77.029213
663,DC4320,Chaukhandi,28.64706,77.09563
664,WPD,Wazirpur Depot / Subhash Place Depot,28.694867,77.15485
665,U02041,Bhikaji Cama Place,28.568,77.1893
666,U00447,Harijan Basti,28.707417,77.040383
667,U02856,Red Fort,28.6541,77.236433
668,DC4297,Mahindra Park Road No-44,28.684023,77.135913
669,DC4128,Geeta Colony Block 5,28.653217,77.271333
670,U03432,Dharma Apartment,28.6199,77.29005
671,U99751,Ranhola Extension,28.6584,77.04395
672,DC4274,Ramleela Ground Geeta Colony,28.654483,77.274867
673,DC4506,Surehra Village,28.59870792487,76.9364446428843
674,U03036,Hamdard Nagar / Sangam Vihar,28.511967,77.249783
675,U00640,Dwarka Sec-1 Mahalaxmi Apartment,28.5961,77.0719
676,U01389,Moti Nagar Market,28.657233,77.14125
677,DC4529,JJ Colony Bawana Road,28.806709,77.047729
678,U02023,Gulabi Bagh,28.674998,77.188525
679,U00555,Uttam Nagar,28.622733,77.060223
680,U03125,Shastri Park,28.6723,77.2571
681,U02635,Balak Ram Hospital,28.7049,77.2231
682,U01135,Deepali Chowk,28.6980166666667,77.1195
683,U02466,Rail Bhawan Metro Station / Krishi Bhawan,28.61495,77.212067
684,DC4337,Qutub Vihar Phase-I Kikar Stand,28.5784,77.029767
685,DC4443,Shikar Pur Crossing,28.545597,76.965275
686,DC0103,Ram Vihar,28.657733,77.310467
687,U01931,IIT Hostel,28.5497,77.18555
688,U03471,Maruti Factory,28.5187,77.2952
689,DC4383,Baprola Village,28.640967,77.011733
690,DC4051,C4 Yamuna Vihar Crossing,28.70065,77.283667
691,U00643JC,Jain Colony,28.75375,77.0728
692,U02216,Burari Village,28.7541,77.199
693,U01576,Prem Bari Pul,28.6999,77.1583
694,U00807,C2D Janakpuri,28.61446,77.086985
695,DC4191,R K Puram Sec 9,28.574718,77.168577
696,U00803,Hanuman Mandir Rohini Sec 24,28.722883,77.087733
697,U99882,Jahangirpuri GT Road,28.725467,77.162833
698,U01213,Kibri Place,28.6044,77.1273
699,DC4489,PTS Jharoda Kalan,28.64293,76.958068
700,U03088,Gamri Ext / Pusta 5,28.695467,77.254783
701,U01852,RK Puram Sec 1,28.563,77.1783
702,DC3886,Pochan Pur Village,28.558449,77.043126
703,U03712,Ram Prastha Crossing,28.6608,77.3202
704,U03113,Desh Bandhu College,28.541258,77.255656
705,U02858,Red Fort,28.65405,77.23645
706,U01760,Janak Vihar,28.6314,77.1711
707,DC3909,Hari Nagar (Mohan Mandir) Mayapuri,28.630683,77.124267
708,U01827,Rajender Nagar,28.641,77.1759
709,DC3674,Mangolpuri K Block (Sanjay Gandhi Hospital),28.694728,77.081911
710,U02171,Dhaula Peer,28.52255,77.19315
711,DC3717,GTB Nagar / Haqiqat Nagar,28.698158,77.207636
712,U02387,Ice Factory (Roshanara Road),28.66745,77.20765
713,U00527,Bharthal Under Pass,28.5477,77.0568
714,U00610,C Block Vikaspuri,28.633233,77.06885
715,DC3968,Kapashera Village Bijwasan Road,28.527567,77.076117
716,U01390,Samaypur School,28.744211,77.143076
717,U01693,Bhalaswa Xing,28.7371666666667,77.1682
718,U02253,IIT Gate (Aurobindo Marg),28.54585,77.201967
719,U01996,Telephone Exchange,28.6975,77.1862
720,U03436,Okhla Village,28.563423,77.291309
721,U99993,Jahangirpuri GT Road,28.7252,77.1634
722,DC4466,Mundhela Kalan School,28.60529,76.893629
723,U02707,PT College Kotla,28.5699,77.2263
724,U00656,Dwarka Sec 1,28.594283,77.073867
725,U02408,Panchsheel Club,28.544567,77.208833
726,U01168,Madipur Village,28.675967,77.123833
727,DC3780,CRPF Camp Okhla Phase 1,28.52855,77.270367
728,U01206,Raja Garden,28.6513,77.1266
729,DC0040,Rithala Village,28.725917,77.100106
730,DC0083,Jija Bai Udyogic Sansthan,28.555283,77.214017
731,DC4008,Samaspur Khalsa,28.578317,76.909933
732,DC4031,Mayur Vihar Phase II,28.620333,77.304833
733,DC3962,Bijwasan Railway Crossing,28.533133,77.055717
734,U00564,Kirari Gaon,28.693783,77.061067
735,U99795,Kanjhawala Chowk,28.7377,77.0077
736,DC108,Nai Basti,28.5616,77.2945
737,DC0017,Vidhan Sabha Metro Station,28.6877833333333,77.2214333333333
738,DC3985,Hardev Puri,28.689533,77.29595
739,U02360,GTB Nagar,28.69835,77.2057
740,U00317,Kanjhawala Haryana Shakti C-School,28.713983,77.003267
741,U02026,R K Puram Sec-2,28.5616,77.1885
742,DC4254,Sena Bhawan,28.60815,77.206667
743,U02795,ISBT Ring Road,28.671267,77.231183
744,U03622,GTB Hospital,28.6855,77.3104
745,DC4300,Road No-44 Crossing,28.686086,77.135974
746,U01834,Shastri Nagar E Block,28.671267,77.176283
747,U03057,Majeedia Hospital,28.515017,77.252617
748,U00988,West Enclave,28.6931,77.1017
749,U02626,Scindia House,28.6287,77.2219
750,U02929,Express Building,28.6339,77.2408
751,U03268,Seelam Pur Petrol Pump,28.672117,77.273467
752,DC4426,KharKhari Nahar,28.58704,76.959128
753,U99852,Unani Hospital / Okhla Ext Thokar 3,28.55898,77.296216
754,U02381,Yusuf Sarai,28.5627,77.2077
755,U02377,Yusuf Sarai,28.5626,77.2074
756,U02300,Jhandewalan,28.646833,77.204083
757,U00721,New Dwarka Road / Seetapuri,28.60955,77.08075
758,DC3597,New Sabzi Mandi,28.7143,77.172217
759,U03828,Mayur Vihar Phase III Crossing,28.615983,77.34145
760,DC3763,Sukhdev Vihar,28.558983,77.273067
761,DC3740,Sabhapur More,28.750167,77.24385
762,DC4400,Qamruddin Nagar,28.6744,77.060767
763,DC3889,DTC Rajghat Depot,28.640467,77.25775
764,DC4549,Kasturi Ram School,28.837258,77.098101
765,DC4526,Bawana Village,28.799966,77.035368
766,U99863,CWG Village / PWD Office,28.6036,77.2691
767,U03412,East Krishna Nagar,28.659883,77.28835
768,U03241,Welcome Colony,28.6711,77.2698
769,U01745,Vasant Kunj Sec-A Pkt-BC,28.51035,77.170483
770,U03719,Anand Gram,28.688783,77.321617
771,U03463,Shashi Garden Xing,28.6136,77.2937
772,U01021,Mangol Pur School,28.6948,77.106467
773,U02906,National Stadium,28.610497,77.24023
774,U99611,Radha Swami Satsang / Rupali Enclave,28.733933,77.020783
775,U01505,Guru Govind Singh College,28.698033,77.15165
776,U01476,ESI Dispensary,28.6605,77.1475
777,U03333,Jamiya Millia College,28.5609,77.2798
778,U01255,Rohini Sec 18 Bus Terminal,28.744967,77.130533
779,U02305,Kendriya Terminal,28.617483,77.203817
780,U03992A,Gupta Market,28.565133,77.239733
781,U02033,State Bank Colony,28.6954,77.1883
782,DC3660,Peeragarhi Chowk,28.67915,77.096067
783,U02083,Green Field School,28.56584,77.194365
784,U99868,New Delhi Railway Station Gate 2,28.6419497,77.22373542
785,DC4151,Aero City Metro Station,28.5484,77.12066
786,U00643,Jain Colony,28.7539,77.072883
787,U03345,Shakarpur,28.633517,77.282067
789,U03166,Govindpuri,28.538825,77.261639
790,U03679,Anand Vihar ISBT Terminal,28.645868,77.315375
791,U01666,Zakhira Flyover,28.66865,77.1654
792,U01763,E Block Jahangir Puri Terminal,28.7330833333333,77.17265
794,U00371,Mundka Main Rohtak Road School,28.683033,77.024517
795,U01805,South Moti Bagh (Ring Road),28.58195,77.174283
796,DC3700,H-3 Vikas Puri,28.646583,77.0794
797,DC4589,Raksha Vigyan Kendra / Metcalf House,28.68198,77.22901
798,U00677,Surajmal Stadium,28.681783,77.072983
799,DC4197,NHAI Building/ Dwarka Sec-10 Metro Station,28.578409,77.058932
800,U00595,Nangloi,28.681617,77.06725
801,U03287,MB Road,28.5058,77.276283
802,U02146,Dr. RML Hospital,28.6226,77.1966
803,U01440,Shakur Pur,28.684483,77.145283
804,U01458,Inder Puri (Krishi Kunj),28.6371,77.1468
805,U03498,ITI Khichiripur,28.613,77.2977
806,U03055,Delhi Secretariat,28.62795,77.25235
807,U02457,Patel Chowk,28.6244,77.2112
808,U00839,Meera Bagh Apartment,28.6572,77.0908
809,U03509,Mansarovar Park Metro Station,28.6759,77.2999
810,U00336,Baprola School,28.63845,77.00785
811,U02554,Claridges Hotel,28.602117,77.21765
813,U01938,Amrit Vihar,28.7643,77.1838
814,U00770,Major Bhupinder Singh Marg,28.64735,77.084783
815,U01791,Munirka DDA Flats,28.555433,77.17635
816,DC4237,Satyam Enclave / Jhilmil DDA Flats,28.666733,77.30465
817,U02703,Ajmeri Gate / Kamla Market,28.6440833333333,77.22405
818,U99952,Jor Bagh,28.585683,77.2168
819,U02620,Vidhan Sabha Metro Station,28.68775,77.22165
820,DC3574,Tilak Nagar / Sant Pura,28.638917,77.100467
821,U02495SB,Krishi Bhawan,28.6169,77.213617
822,U01321,Naraina Village,28.6186,77.1362
823,DC4503,Sainik Enclave Jharoda,28.634639,76.963163
824,U00959,Avantika Sec-2,28.7019333333333,77.0991
825,DC3723,Sant Nagar Main Market,28.741983,77.1978
826,U03286,Laxmi Nagar Metro Station,28.630967,77.277767
827,DC4566,Ishwar Colony,28.794709,77.030052
828,DC4025,Ujwa Gaon,28.568783,76.9067
829,U03814,Mayur Vihar Phase III A1 Block,28.608467,77.33735
831,U00742,Krishna Park,28.6391,77.0819
832,DC4555,Bharat Mata School,28.833074,77.076871
833,NS0375,DDA Flats Kalkaji,28.5254,77.2568
834,DC4532,Sanoth Xing / Ghogha Xing,28.819907,77.06374
835,U01209,Rajouri Garden Market,28.6453,77.1268
836,DC0046,Rohini Sec 22/24 Crossing,28.720656,77.069805
837,NS0505,Dwarka Sec 3/4,28.602367,77.042683
838,DC4701,S Block Greater Kailash- II,28.52922,77.245027
839,DC4578,Malik Pur Village Crossing,28.552333,76.907483
840,DC4432,Khera Village,28.596312,76.964794
841,U02870,Savitri Cinema,28.54175,77.23855
842,U99712,Rajghat Gandhi Darshan,28.639,77.2513
843,DC4386,Jai Vihar,28.6316,77.000483
844,U03996A,Jaitpur Mor,28.497367,77.302117
845,U02750,Metcalfe House,28.6807,77.2281
847,U02090,DDA Flats Lado Sarai,28.529833,77.192117
848,U01923,R K Puram Sec-3,28.55877,77.18227
849,U03158,Tughlaqabad Extn,28.5255,77.2607
850,U02711,Kasturba Gandhi Crossing,28.6234,77.2266
851,DC4240,Vivekanand Mahila College,28.665467,77.314517
852,U99679Z,Tehkhand Depot DTC,28.510917,77.281167
853,U01807,Sabji Mandi Azadpur,28.7143666666667,77.1722
854,U02649,New Delhi Railway Station Gate 2,28.64192836,77.22374256
855,U02393,Patel Chest,28.691304,77.208108
856,U02401,Hansraj College,28.6793,77.2084
857,U02979,Vijay Ghat,28.6578,77.2448
858,U00802,Keshopur Depot,28.6525,77.0876
859,U01395,ISIC Hospital (Verma farm),28.533917,77.142483
860,U01588,GTK Depot,28.731117,77.158967
861,U01065,Shahbad Daulatpur Gaon,28.745183,77.1121
862,U00499,Sultan Pur Crossing / Poothkhurd,28.767917,77.049267
863,U03461,Jagatpuri  A Block,28.651833,77.293083
864,U02807,Old Delhi Railway Station,28.6579,77.2319
865,U01275,NHW 8,28.569183,77.1326
866,U02851,LNJP Hospital,28.6401,77.234817
867,U02311,Jhandewalan,28.6471,77.2039
868,DC4163,Deep Market Ashok Vihar,28.693867,77.173
869,DC3769,Prem Nagar,28.742742,77.146403
870,DC3646,Dwarka Sec 1 Road No. 201,28.5945,77.073517
871,U99956,Lajpat Nagar,28.566667,77.24635
872,DC3937,Bodhik Sampda Bhawan,28.598033,77.025967
873,U02076,Gurudwara Nanak Pyau,28.6908,77.1918
874,U01359,Pittampura AP-Block,28.7034,77.1395
875,DC4455,Pandwala Crossing,28.558136,76.973881
876,U02430,Krishan Menon Marg,28.6069,77.2098
877,U03513,NTPC,28.5074,77.3002
878,DC4263,Shivpuri Colony,28.651867,77.2781
879,U01028,DA Block Hari Nagar,28.6249166666667,77.10705
880,U01640,Zakhira,28.668,77.164283
881,DC3875,Ranhola II,28.654767,77.037983
882,U02472,Indra Vihar,28.70608,77.21208
883,DC3971,Haryana Pottries,28.538183,77.0352
884,U01697,Inderlok,28.6714,77.1672
885,U00858,Sunder Vihar,28.6635,77.0918
886,DC4011,Ujwa Gaon,28.568767,76.906767
887,U03151,Ashram Chowk,28.571617,77.259167
888,U02681,Mori Gate Terminal,28.666517,77.225883
889,U03754,J  and  K Pocket Dilshad Garden,28.6797,77.3247
890,DC4226,Suraj Mal Vihar,28.661333,77.303717
891,U02364,Panchkuian Road,28.6402,77.2067
892,U03649,Nand Nagari E-Block,28.693817,77.3139
893,U02359,NDPO,28.6235,77.2065
894,U00324,Kanjhawala Village,28.734026,77.004905
895,U00652,Dwarka Crossing/ Dwarka Sec 1,28.594483,77.073583
896,DC4203,Delhi Sachivalaya (Raj Ghat Power House),28.637717,77.252683
897,U02584,Indian Oil Bhawan,28.6286,77.2193
898,U00380,Mundka School,28.682717,77.023883
899,U02028,Karol Bagh Metro Station,28.643911,77.188747
900,U99773,Mundhela Crossing,28.59765,76.895133
901,DC4034,Lal Bahadur Shashtri Hospital,28.617317,77.3098
902,DC4157,Chanakya Bhawan,28.58385,77.192083
903,U00461,DSIDC Bawana/ Dhakewala,28.780733,77.043767
904,U03343,Jharkhandi,28.6678,77.282
905,U01261,Punjabi Bagh Club,28.663517,77.131133
906,U03198,Seelam Pur Metro Station,28.67051,77.265754
907,U00165,Tikari Village,28.6875,76.9708
909,U01053,DDU Hospital,28.628,77.1107
910,U02215,CV Raman ITI,28.7208333333333,77.20005
912,DC3706,CRPF Camp / Crown Plaza,28.527783,77.2722
913,U03107,Tara Apartment,28.524,77.256
914,DC3600,Jahangir Puri Metro Station,28.7273,77.161583
915,U02237BJP,Budha Jayanti Park,28.615317,77.175317
916,DC4117,Bank Enclave,28.638617,77.269717
917,U02566,Anandlok,28.5582,77.2184
918,DC4309,Kapil Vihar,28.699602,77.134723
919,U02729,Vocational College,28.5322,77.2278
920,U00527BPC,IOC Dwarka Road,28.5445,77.0648
921,U00881,Peera Garhi Metro Station,28.68,77.0929
923,U01005,Rithala School,28.7150833333333,77.1039
924,U03156,Ram Puri Gali No 13,28.5346,77.2602
925,U00968,G Block Hari Nagar,28.628,77.100233
926,U00561,Uttam Nagar,28.623017,77.06031
927,U00546,Rajiv Nagar,28.724767,77.058683
928,U02666,Andrews Ganj Shiv Mandir / Ansal Plaza,28.56545,77.2245
929,U01192,Rohini Sec 7 and 8 Crossing,28.708133,77.125317
930,U02838,National Stadium,28.6136,77.2347
931,U99918,E.S.I. Hospital,28.515967,77.28055
932,U01900,ISTM,28.552767,77.181
933,U99890,Telephone Exchange,28.675817,77.309217
934,DC4372,Ranhola Extension,28.657889,77.043025
935,U03138,Nizamuddin Road Bridge,28.599043,77.257822
936,U02655,I P College,28.679633,77.223967
937,DC3537,Om Vihar,28.621,77.052203
938,U01094,Engg College Shahbad,28.745317,77.116433
939,DC3729,Pusta No 3 Sonia Vihar,28.725583,77.2448
940,U02164,Chetan Bihari Mandir Sant Nagar,28.7447,77.198
941,U02594,Banarsi Daas Estate Timarpur,28.69714,77.220359
942,DC0139,Bank,28.52585,77.273517
943,U02625,Vigyan Bhawan,28.610217,77.22165
944,U02760,Dayal Singh College,28.592183,77.228983
945,U99957A,Jal Vihar Terminal,28.578443,77.245874
946,DC4223,Mukundpur (Changeover Point),28.72506,77.18286
947,DC3563,Nangli Sakrawati Crossing,28.616417,77.007333
948,DC3540,Mohan Garden,28.62012,77.0401
949,U03434,Surajkund Crossing,28.5015,77.2903
950,DC4200,Princess Park/ Airforce Noval Office Enclave,28.587688,77.066452
951,U01544,Swatantra Bharat Mills,28.663528,77.155197
952,U02705,Nehru Vihar Crossing,28.709067,77.226233
953,U99750,PS Ranhola,28.653399,77.03552
954,U00191,Nazafgarh Terminal,28.61465,76.9779
955,U00079,Mitraon School,28.6069,76.9394
956,U01465,Bentex,28.6442,77.1477
957,DC4492,Jharoda Kalan,28.655132,76.949972
958,U03661,Gagan Cinema,28.6957,77.3153
959,U01478,Britannia,28.6849,77.1492
960,DC4054,Krishna Marg Kardam Puri,28.696833,77.281817
961,U01753,Wazir Pur JJ Colony,28.6821,77.170133
962,DC3663,Chhawni Hospital,28.599133,77.125683
963,DC3997,Rohini Sec 22 Terminal,28.717833,77.063783
964,DC3931,Sector 17/18 More Dwarka,28.59345,77.033267
965,U03541,Ashirwad Apartment,28.634483,77.301867
966,U02287,Saket A Block (Malviya Nagar Metro Station),28.528,77.205
967,U01234,Kabul Line,28.5978,77.1287
968,U00588,Uttam Nagar Terminal,28.625329,77.066948
969,U00284,Jhatikara Xing,28.5845,76.9956
970,U00465,Rama Vihar,28.728583,77.045817
971,U02832,Mandi House,28.625767,77.234333
972,U02949,Kailash Colony,28.554483,77.2432
973,U01036,Rithala Metro Station,28.7198,77.1087
974,U01014MPS,Mangolpur School,28.694767,77.106433
975,U01187,Rajdhani College / Raja Garden,28.656033,77.125833
976,U00779,Mangla Puri Terminal,28.5899833333333,77.0870166666667
977,U02454,Khel Gaon / Siri Fort Road,28.5507,77.210817
978,DC3689,Civil Line Metro Station,28.676717,77.225033
979,U01920,Mukund Pur Crossing,28.73215,77.182433
980,U02788,Andrews Ganj,28.565967,77.2306
981,U02406,Ice Factory (Rani Jhansi Road),28.667237,77.209039
982,DC4326,Goyla Village,28.587602,77.008644
983,U01479,Libaspur GT Road,28.752483,77.14945
984,DC4469,Mundhela School II,28.614198,76.895717
985,U03773,New Seema Puri Depot Cluster,28.684864,77.331577
986,U02325,Maharishi Balmiki,28.7051,77.204933
987,U02131,Nauroji Nagar,28.569294,77.195057
988,U99871,Tughlaq Crescent,28.5949,77.212
989,U01348,Payal Cinema,28.6314,77.1384
990,U99632,Agar Nagar,28.703277,77.043984
991,DC4412,KharKhari Jatmal,28.582264,76.958092
992,U02660,Minto Road Terminal,28.639324,77.223869
993,DC0043,Sec-24 Rohini,28.7283,77.0926
995,U01060,Puspanjali Enclave,28.696267,77.1112
996,DC0020,Saleemgarh Road,28.6502,77.2524
997,U00609,Budhela Village / C Block Vikas Puri,28.6354,77.070533
998,U00961,Mangolpur Kalan Village,28.6957,77.1012
999,U00809,Palam Colony,28.581483,77.096017
1000,U02113,Pusa Road Petrol Pump Sadhu Vaswani Marg,28.6448,77.1934
1001,U00574,Kirari Railway Xing,28.686399,77.062712
1002,U02118,Talkatora Stadium Garden,28.621483,77.194617
1003,DC0056,Mukharji Nagar Tank,28.7105,77.2112
1004,DC3915,Maya Enclave,28.616667,77.110233
1005,U99849,Kaka Nagar,28.60575,77.2371
1006,U02104,Vinay Marg,28.5862,77.1934
1007,U99803A,Kirodi Mal College,28.6833333333333,77.2085
1008,U01897,R K Puram Sec-4,28.5618,77.1807
1009,U02593,Mall Road,28.693917,77.219883
1010,DC0072,Nirman Bhawan,28.6105,77.215867
1011,U99931A,Lodhi Hotel,28.591317,77.239667
1012,U00672,Vijay Enclave,28.6062,77.0755
1013,U00799,Hanuman Mandir Rohini Sec 24,28.722667,77.08745
1014,DC4389,TilangPur Kotla,28.651233,77.0302
1015,U01536,Masood Pur Village,28.525433,77.154483
1016,DC0003,Rohini West Metro Station,28.7154,77.1147
1017,U00748,T Block Magol Puri,28.689348,77.082071
1018,U01635,Dhaula Kuan,28.592721,77.163492
1019,DC4429,Ghuman Hera DTC Depot,28.534088,76.915012
1020,U00657,Rohini Sec 20/21 More,28.715887,77.074077
1021,U02429,Bhavishya Nidhi Enclave,28.5428,77.209567
1022,U02421,Sewa Kutir,28.70265,77.2098166666667
1023,U02843,MCKR Hospital,28.569167,77.23525
1024,NS0199,Puspanjali G Block,28.5427,77.072883
1025,DC4303,Lok Vihar,28.612699,77.135213
1026,U00398,Mundka Village Metro Station,28.682252,77.029944
1027,U00589,Dwarka Sec 2-6,28.597367,77.064883
1028,U02837,Kouria Bridge,28.6603,77.2346
1029,U03745,Kondali Old,28.613051,77.322989
1030,DC4452,Rewla Tajpur Crossing,28.572245,76.980779
1031,DC4515,Brar Square,28.6073263152858,77.1409517654622
1032,DC1102,Okhla Depot IV CWS II,28.51835,77.284767
1033,U00377,Kakrola Bridge,28.619758,77.024856
1034,DC0097,Kushak Nallah Depot,28.57985,77.22495
1035,U02771,ISBT Kashmere Gate,28.6667333333333,77.2294
1036,U03102,B-Block East of Kailash,28.562167,77.255617
1037,U99761A,Bhajan Pura,28.70355,77.263367
1038,U01711,Jahangirpuri K Block,28.7304,77.168
1039,DC3974,Hargovind Enclave,28.645917,77.30105
1040,U01535,Swatantra Bharat Mills,28.663167,77.154733
1041,U99853A,Shaheen Bagh Thokar No 5,28.552517,77.29995
1042,U01263,Shivaji Park,28.674683,77.131433
1043,DC4366,Qamruddin Nagar,28.675067,77.061483
1044,U03282,Holy Family Hospital,28.56095,77.275467
1045,U00351,Baprola Village,28.640823,77.011757
1046,U03148S,Ashram Chowk,28.571233,77.259017
1047,U00252,Nirmal Vihar,28.62545,76.992433
1048,DC3872,Kotla Vihar Phase II,28.648417,77.025167
1049,DC4014,Jhuljhuli Crossing,28.531617,76.907067
1050,DC4037,Radha Swami Satsang,28.620517,77.307533
1051,DC4183,Dwarka Sec-21 Metro Station,28.5516666666667,77.0566833333333
1052,U02577,New Delhi Railway Station Gate 1,28.641317,77.21865
1053,U00276,Jhatikara Crossing,28.585867,76.994978
1054,U99789,Rani Khera Bus Stand,28.7046,77.0278
1055,DC3749,Buddh vihar,28.70415,77.087483
1056,DC3991,Mauj Pur,28.689372,77.278191
1057,U03203,Kalkaji Depot,28.539467,77.266233
1058,DC3703,Vikas Puri Crossing,28.6295,77.06885
1059,U01602,Outer Ring Road Makbara Chowk,28.736833,77.159933
1060,U02246,Clock Tower,28.6774,77.201633
1061,U02340,Maurice Nagar II,28.68655,77.2057333333333
1062,U00835,Ganesh Nagar Check Post,28.634383,77.0893
1063,U99860,R R Line,28.60415,77.155333
1064,U01815,Bapu Dham,28.5992,77.1753
1065,U00741,C-2 Janak Puri,28.616099,77.081447
1066,U99792Z,Karala Xing,28.731415,77.032086
1068,U02990,Shanti Vana,28.6497,77.2458
1069,U02158,Nirankari Sarovar Burari Xing,28.7271,77.1978
1070,U03099S,Khajuri,28.70465,77.2571
1071,DC3626,Suraj Vihar,28.613433,77.03315
1072,U02237BP,Budha Jayanti Park,28.61538,77.17517
1073,U00603,Uttam Nagar / A1 Janak Puri,28.624233,77.067867
1074,DC4306,Harsh Vihar,28.694734,77.134755
1075,DC4475,Keshav Nagar Darshan Dham,28.784103,77.180028
1076,U01661,Kishan Garh,28.514417,77.164167
1077,U03764,Mayur Vihar Phase III Crossing,28.6023484928639,77.32566419165
1078,U00700,Mata Chandan Devi Hospital,28.618876,77.078653
1079,U02578,Windsor Place,28.618,77.2189
1080,DC3726,Pusta No 1 Sonia Vihar,28.718883,77.24335
1081,U00964,Rohini  Sec-1 Avantika,28.703,77.0998
1083,DC4704,E Block Greater Kailash- II,28.537437,77.240908
1084,U02460,Begumpur,28.536667,77.209583
1085,U00933,Tilak Nagar,28.6352,77.0971
1086,U01531,Ram Pura,28.67195,77.15395
1087,DC4512,Satya Puram Jharoda,28.663192,76.945139
1088,U03035,South Park Appartments CR Park,28.5411,77.24915
1089,U02908,Pant Nagar,28.583567,77.2406
1090,U00359,Dariyapur Kalan School,28.8089333333333,77.0148666666667
1091,U03077,Nehru Nagar,28.568283,77.253917
1092,U01267,Madhuban Chowk (Outer Ring Road),28.7054,77.132
1093,U00003,S.K.V.Dhansa,28.5576,76.8622
1094,U02889,Tilak Bridge,28.6241,77.2394
1095,U03746,Shahdra Border,28.6758,77.3231
1096,U03391,Mother Dairy,28.619267,77.286067
1097,U02693,Ajmeri Gate,28.643383,77.225733
1098,U01245,Punjabi Bagh Club,28.663217,77.130183
1099,U99975,Vasant Lok,28.560433,77.164383
1100,U01915,Mehrauli Terminal,28.5217372755846,77.1826898067577
1101,U01126,Deepali Chowk,28.69835,77.1195333333333
1102,U02116,Green Field School,28.56604,77.19428
1103,U03750,Shahadara Border Road No 62,28.677683,77.323483
1104,U00745,Mangolpuri S Block,28.6927,77.082
1105,U02632,J and K House,28.6019,77.2226
1106,DC4552,Kurani More,28.840835,77.090527
1107,U03326,Harkesh Nagar,28.543933,77.279483
1108,U02770,Sujan Singh Park,28.601017,77.22945
1109,DC4575,East Vinod Nagar Depot,28.620318,77.300148
1110,U03437,P S Pandav Nagar,28.6142,77.2911
1111,U00891,Peera Garhi Depot,28.675,77.094
1112,U01119,DDA Flats Hari Nagar,28.6308,77.1193
1113,U01069,Zunk Market,28.618433,77.11235
1114,DC3666,Chhawani Hospital,28.59995,77.1249
1115,DC4289,SDM Office Bank Enclave,28.643403,77.270221
1116,U01510F,Air Force HQ / Subroto Park,28.584133,77.146033
1117,U02671,Lodhi Colony,28.5846,77.2246
1118,U01730,R K Puram Sec-5,28.56055,77.17025
1119,DC4097,Vivek Vihar ITI,28.6707,77.315833
1120,U00792,Dabri Xing,28.61195,77.086033
1121,U02644,Lodhi Road Crossing,28.592,77.2237
1122,U02718,Vocational College,28.532283,77.22695
1123,DC4243,Teen Murti,28.606083,77.198917
1124,U00745MP,S Block Mangol Puri,28.692667,77.082583
1126,U03202,Bala Sahib Gurudwara,28.5821,77.26555
1127,U01163,Supply Depot,28.606633,77.123233
1128,U02255,Guru Govind Singh Crossing (Faiz Road),28.653054,77.202311
1129,U03274,CRRI,28.550467,77.27485
1130,U99804,Ice Factory,28.6663,77.2087
1132,U02125,Burari Garhi,28.7578,77.1952
1133,DC3835,Karol Bagh Gurgaon Stand,28.64376,77.19701
1134,U03215,Yamuna Vihar Block C-1,28.7033,77.2676
1135,U02744,JLN Marg,28.64205,77.228333
1136,U99974,PS Tuglak Road,28.599867,77.211267
1137,DC3643,Prehlad Pur,28.579517,77.101617
1138,U03527,Badarpur Village,28.502033,77.300367
1139,DC4329,St Thomas School Goyla Vihar,28.581902,77.015056
1140,U01494,Bentax,28.644717,77.147667
1141,U03458,MIG Flates Loni Road,28.70065,77.295217
1142,DC4266,East Guru Angad Nagar,28.641233,77.282717
1143,U01033,Rithala Metro Station,28.7196,77.1084
1144,DC3772,Prem Nagar,28.742883,77.146467
1145,U00852,Janak Cinema,28.610881,77.092159
1146,U02342,Kendriya Terminal,28.6174,77.203467
1147,DC4160,Deep Market Ashok Vihar,28.69345,77.173233
1148,U03540,Neethi Apartment,28.6314,77.302
1149,U99983,Rajendra Place / Karol Bagh Telephone Exchange,28.642667,77.180083
1150,U00392BM,Bamnoli Crossing,28.539267,77.029983
1151,U02386,Thana Sabzi Mandi- Ice Factory,28.66925,77.207667
1152,DC3686,Shaheen Bagh Thokar No. 6,28.55137,77.300588
1153,U99828,Samalka Xing,28.5378,77.0927
1154,DC3580,New Usman Pur Pusta No-1,28.679967,77.256017
1155,DC4074,GTB Hospital Crossing,28.690067,77.307817
1156,U01303,Naraina Vihar,28.627183,77.13375
1157,U02081,Africa Avenue,28.56965,77.19145
1158,U02187,RML Hospital,28.62505,77.198717
1159,U02405,Chitra Gupta Road,28.6411,77.2085
1160,U03581,Trilokpuri 13-Block,28.6126,77.3062
1161,U01886,Telephone Exchange Karol Bagh,28.642914,77.181798
1162,U03273,CRRI,28.551067,77.27395
1163,U03296,Welcome Colony Metro Station,28.672,77.275
1164,U02079,Akbar Bhawan,28.586,77.1911
1165,U01510,RR Hospital / Maharana Pratap Chowk,28.59015,77.15675
1166,U00691,M Block Vikaspuri,28.6386,77.077717
1167,U01550,Jai Mata Market Tri Nagar Terminal,28.681367,77.155417
1168,U00698,C-1 Janakpuri,28.6174,77.0785
1169,DC3855,Deep Vihar,28.7349,77.0871333333333
1170,U01121,Madipur JJ Colony Metro Station,28.676383,77.1205
1171,U02920,Amir Khusro Park / Oberoi Hotel,28.596267,77.240433
1172,DC3809,Madanpur Khadar,28.532333,77.296417
1173,DC0075,Chirag Dilli,28.542,77.2308
1174,DC4346,Dwarka Sec-19 Modern School,28.578591,77.054908
1175,DC4246,Sena Bhawan,28.6082,77.206667
1176,DC4392,Ranhola II,28.65466,77.038019
1177,DC0006,Rithala Crossing,28.7119,77.1078
1178,DC4449,Rishal Vihar,28.553603,76.992783
1179,U03492,Meet Nagar/Ashok Nager,28.7001,77.297483
1180,U02522,Palika Kendra,28.62875,77.216567
1181,U02968,Pumposh Enclave,28.5435,77.2441
1182,U02316,Bara Hindu Rao,28.6616,77.2048
1183,DC3912,Sarai Rohilla Flyover,28.667133,77.182067
1184,U03723,Kalyan Puri Xing,28.6144,77.3214
1185,U01942,Amrit Vihar Colony,28.7645,77.1838
1186,U00249,BDO Office Roshan Pura,28.600501,76.988597
1187,U02239,Raj Nagar,28.5701,77.2011
1188,U00419,Mundka Village Xing,28.6825,77.035733
1189,U99819Z,Mubarakpur Xing,28.712583,77.028028
1190,U00976,Sant Pura,28.638567,77.100583
1191,U00922,Shahbad Dairy,28.7465,77.0963
1192,U01722A,Shanti Niketan / RK Puram Sec 9,28.5747824927672,77.1687699879572
1193,U03217,C-Lal Chowk,28.5345,77.2683
1194,DC3832,DSIDC Bawana/ Dhakewala,28.78585,77.0414
1195,U01762,Janak Vihar,28.6312,77.1712
1196,DC4369,ShivRam Park,28.667717,77.055233
1197,U03063,Sri Niwaspuri / PG DAV College Lajpat Nagar,28.56675,77.253117
1198,DC4220,Shalimar Bagh Desu Colony,28.718695,77.158424
1199,DC4120,Kali Bari Marg,28.630717,77.197933
1200,U02755,Defence Colony,28.574267,77.228733
1201,DC3683,Nai Basti,28.561467,77.294667
1202,U00067,Surehra Crossing,28.60418,76.932332
1203,U02479,Tees Hazari Animal Hospital Mori Gate,28.6644,77.215233
1204,U02235,Roshnara Bagh,28.6717,77.2007
1205,U01517,Masood Pur Village,28.52535,77.154683
1206,DC4558,DJB,28.815305,77.057968
1207,U02512,Tees Hazari Court,28.6668,77.2188
1208,U00544,Rajeev Nagar,28.7247333333333,77.05875
1209,U01350,Pitampura CD Block (Aggrasen model School),28.7058,77.1386
1211,DC3543,Arjun Park,28.618083,77.013083
1212,U02306BM,Balmiki Mandir,28.639867,77.2043
1213,DC4057,Gokul Puri,28.702083,77.2828
1214,U03249,Sukhdev Vihar Depot,28.554867,77.27125
1215,DC3606,Libas Pur GT Road,28.7501,77.150733
1216,U01459,Power House,28.672702,77.147024
1217,DC3994,Zafrabad,28.676269,77.271694
1218,U02262,Kamla Nagar/ Roop Nagar,28.68405,77.202317
1219,U02491,Mukharji Nagar Xing,28.7093,77.2137
1220,U01613,Shalimar Bagh Richi Rich,28.7017833333333,77.1643833333333
1221,U02338,CV Raman ITI,28.726683,77.2048
1222,U00363,BakkarWala Crossing,28.643213,77.01611
1223,U01296,Shastri Bazar,28.5966,77.1347
1224,DC4535,Maharaja Agrassen School,28.835983,77.079317
1225,U03289,MB Road (TBag),28.505533,77.276483
1226,DC4143,Cargo / Express Terminal Gate,28.555807,77.09753
1227,U02817,Central School,28.562817,77.2328
1228,DC0109,Preet Vihar,28.639333,77.292417
1229,DC4472,Mundhela Khurd Village,28.617265,76.893125
1230,U01225,SPM College,28.675417,77.128033
1231,U00593,Lokesh Cinema Nangloi,28.6822,77.060033
1232,U03180,Kalkaji Mandir,28.55135,77.26385
1233,U00467,DPS Matiyala,28.60465,77.046233
1234,DC4495,S.Sr. Kanya Vidhyalaya,28.64673,76.956049
1235,DC3934,Dwarka Sec 16C/GGS IP University,28.594917,77.022233
1236,U03505,Chandar Vihar,28.633,77.299
1237,U00321,Sumesh Vihar,28.5579,77.0044
1238,DC4017,Dauralla Border,28.50795,76.897133
1239,U03676,Gazipur Depot,28.64175,77.316033
1240,U00754,Manohar Nagar,28.6427,77.083
1241,U02438,Shahpur Jat,28.5482,77.21
1243,U01354,Uttri Pitam Pura,28.715117,77.138917
1244,U02395,GTB Nagar / Haqiqat Nagar,28.698283,77.2076
1245,U00757,Kapashera Village,28.5235,77.08325
1246,U03031,Lajpat Nagar 1 Ring Road,28.5655,77.24548
1247,U00623,Tilak Pul,28.6215,77.07
1248,DC4323,Shyam Vihar,28.591481,77.000564
1249,U01935,RK Puram Crossing,28.5682,77.1836
1250,U00320,Sumesh Vihar,28.5579,77.0043
1251,U01249,Rohini Sec 18 Bus Terminal,28.744717,77.1301
1252,U01202,Rohini East,28.7074,77.1261
1253,DC3592,Shastri Park Pusta Road,28.674017,77.2563
1254,U01667,Ashok Vihar Crossing,28.701433,77.164083
1255,NS0189,Mahipal Pur Village,28.545667,77.123083
1256,DC0060,Ekta Garden- Harijan Basti,28.7563,77.1971
1258,DC0081,North Paint Nursing Home,28.5427,77.2176
1259,U00938J5A,C-5A Janakpuri,28.6155,77.097
1260,U02775,Sewa Nagar Flyover,28.57875,77.229533
1261,U01426,DAV School,28.6998,77.1438
1262,U00986,Hari Nagar Depot,28.6245,77.1018
1263,U01848,R K Puram Sec-1,28.5647,77.1783
1264,U02121,Tibiya College,28.6574,77.1947
1265,U00965,Sagarpur / Vashisht Park,28.6091,77.0996
1266,U00896,Mangol Pur Khurd,28.699967,77.094383
1267,U00759,Kapashera Village,28.524517,77.0837
1268,U00667,Sultanpuri Terminal,28.70305,77.075467
1269,U02182,Sant Nagar Main Market,28.7418,77.198
1270,U01325,Naraina Village,28.618133,77.13675
1271,U02163,PTS,28.531233,77.196833
1272,DC3861,Mubarakpur School,28.71205,77.033933
1273,DC4332,Nehru Bus Stand Goyla Dairy,28.580346,77.019327
1274,U03190,Laghu Udyog Sansthan (ModiMill),28.5565,77.2648
1275,U01929,Bara Bagh,28.7017,77.1831
1276,DC4524,Panchayat Ghar,28.797927,77.031801
1277,U03609S,Parivar Apartment,28.62675,77.30935
1278,DC3669,Khel Gaon CWG Village,28.606621,77.274337
1279,DC4255,Nangal Raya DDA Market,28.609683,77.1068
1280,U03609,Parivar Apartment,28.626417,77.3091
1281,U03132,DDA Flats Kalkaji,28.5283,77.2576
1282,DC4063,Virender Nagar/ Dilli Haat,28.623584,77.09761
1283,DC3738,Annpurna Mandir,28.74245,77.246567
1284,U00224,PS Najafgarh,28.609583,76.98295
1285,U02285,Videocon Tower,28.6441,77.2036
1286,U01018,Multan Nagar,28.678083,77.105467
1288,DC4126,Bank Enclave,28.639067,77.2693
1289,U01554,Shadipur Colony,28.6517,77.1565
1290,DC4026,Samaspur Khalsa,28.578549,76.909937
1291,U02293,Kendriya Terminal,28.6173,77.2035
1292,U02946,Metro Train Depot,28.673867,77.241633
1293,U03089,Nehru Place Terminal,28.5481,77.2552
1294,U00605,Uttam Nagar Terminal,28.626136,77.06845
1295,U01776,Moti Bagh Gurudawara Nanakpura,28.584933,77.172167
1296,U03075,Nizamuddin Road Bridge,28.6034,77.254233
1297,DC3941,Mayur Vihar Phase III Terminal / Paper Market,28.618229,77.341004
1298,U01780,New Sabzi Mandi,28.7139,77.1725
1299,U03416,Nirman Vihar,28.636783,77.287683
1300,U02899,Zoo,28.6084,77.23995
1301,U02469,Tughlaq Crescent,28.5942,77.212
1302,U99609,Karala School,28.7308,77.0398
1303,U99949T,Keshav Mahavidhyalaya,28.68715,77.12005
1304,U02937,Delhi Gate,28.63735,77.241217
1305,U03154,Govindpuri Extn Gali No. 16,28.5329,77.2596
1306,U00427,Bawana School,28.796201,77.035577
1308,U01051,Zunk Market,28.6171,77.1108
1310,U00315,Harewali Xing,28.818533,77.002817
1311,U02575,National Archives,28.6156,77.2188
1312,U03627,Nand Nagari Terminal,28.691383,77.310483
1313,U03187,Bhajanpura,28.703351,77.263706
1314,DC3957,Rani Bagh Railway Colony,28.68395,77.12885
1316,DC4149,Centaur Hotel / Nangal Dairy,28.548933,77.104717
1317,U01902,Shastri Nagar Metro Station,28.670231,77.181136
1318,DC4541,Safiyabad Xing,28.855266,77.08973
1319,U03192,Tughlaqabad Village,28.509283,77.265
1320,U02135,Ashoka Hotel,28.5944,77.196
1321,U02362,Green Park,28.5572,77.2068
1322,DC3529,Kair Village,28.623067,76.9206
1323,U00275,Ghevra Crossing Rohtak Road,28.68545,76.99485
1325,DC0009,Avantika Crossing,28.6989,77.0968
1326,U01270,Madhuban Chowk (Outer Ring Road),28.7048,77.1322
1327,U03780,New Kondali A1 Crossing,28.602967,77.329133
1328,U02824,Jaipur House,28.6095,77.2332
1329,U01649,Swami Malai Mandir,28.567817,77.16495
1330,U02488,Sucheta Kriplani Hospital,28.63635,77.21395
1331,U01239,Kabul Line,28.5977,77.1292
1332,DC4478,Bharthal Village (Shyam Mandir),28.543017,77.043635
1333,DC4501,Surakh Pur Crossing,28.615549,76.976354
1334,U02696,Bhartiya Vidya Bhawan,28.6219,77.2258
1335,U02613,Khyber Pass,28.6902,77.2214
1336,U03473,Pocket-5 Mayur Vihar Ph-1,28.6132,77.2955
1337,U01727,Inderlok Metro Station,28.673633,77.168983
1338,DC3980,Mauj Pur,28.6891,77.27765
1339,U02565,Peeli Kothi,28.6624,77.2181
1340,U01486,Netaji Subhash Palace (Wazirpur Depot) Road No 41,28.69415,77.151033
1341,U03795,Dilshad Garden Depot Cluster,28.685558,77.331408
1344,U01968,Government Quarter Sarai Rohila,28.6613,77.184633
1345,U00722,Kangra Niketan,28.639133,77.081983
1346,DC4564,Primary School,28.797786,77.033746
1347,DC0029,Nityanand Marg,28.66835,77.225
1348,U00825,C2B Janakpuri,28.621233,77.088917
1349,U00010,Dhansa Village,28.557767,76.868767
1350,DC4415,Hasanpur Village,28.556475,76.936796
1351,U00420,Bawana Village,28.80175,77.039147
1352,DC4438,Shiv Enclave Dichau,28.624102,76.984675
1353,DC4461,Jhatikra Crossing Pandwala Road,28.584748,76.995233
1354,U00309,Harewali Crossing,28.81855,77.003033
1355,DC4484,Surakh Pur Crossing,28.61549,76.976275
1356,U02294,Nirankari Colony,28.7148,77.204
1357,U02761,Ambedkar Nagar Depot,28.515267,77.2284
1358,U01335,Kirti Nagar,28.654783,77.136667
1359,U01912,Shastri Nagar Metro Station,28.669997,77.181336
1360,U01627,B3 Keshav Puram,28.6861,77.1629
1361,U03495,KarKarDooma Crossing,28.643217,77.297317
1362,U02831,Mandi House,28.625567,77.233933
1364,U03494,Karkardooma Crossing,28.692917,77.297183
1365,U01340,Rang Puri Pahari,28.537983,77.137
1366,U02220,Faiz Road,28.6495,77.1998
1367,U01071,Shiv Murti,28.535683,77.11255
1368,U02542,Lucknow Road,28.695844,77.216119
1369,U99895,Shivaji Stadium Terminal,28.632583,77.215467
1370,DC0051,ISBT Ring Road,28.6717,77.2315
1371,DC4192,Shanti Niketan,28.572969,77.163914
1372,DC3944,Kerala School,28.616,77.34095
1373,U00301,Hiran Kudna Crossing,28.684917,77.001267
1374,U02301,Nirankari Colony,28.714883,77.2041
1375,DC3655,Mahindra Park,28.721715,77.166162
1377,U00510,Nilothi Crossing,28.664533,77.052633
1378,DC3901,Bawana,28.800283,77.035383
1379,DC4146,IGI Airport Terminal 2 (Air India Office),28.556837,77.09186
1380,U03464,Shashi Garden Xing,28.6136,77.2941
1381,U02845,Bapa Nagar,28.60635,77.234917
1382,U02133,Gur Mandi,28.6849666666667,77.1959333333333
1384,U01058,Beriwala Bagh,28.631183,77.112217
1385,U02436,Sunehri Masjid/ G Block,28.6094,77.2097
1386,U02567,South Extn Kotla Petrol Pump,28.568767,77.216767
1387,U02676,Swami Nagar,28.54215,77.224683
1388,U03159,SNPD,28.560733,77.260617
1389,U00585,Dwarka Sec 2-6,28.597267,77.0654
1390,U03165,Govindpuri,28.538,77.2615
1391,U00830,Udyog Nagar,28.67995,77.0895
1392,U00763,Krishna Vihar,28.706667,77.084217
1393,U02614,Asian Market,28.5166,77.2214
1395,DC4312,Nirmal Vihar,28.625333,76.992517
1396,DC3775,Jhilmil Crossing / Dilshad Garden GT Road,28.6764,77.318217
1397,DC4020,Dauralla Village,28.510917,76.8954
1398,NS0489,Vishwa Vidyalaya Metro Station,28.695084,77.215315
1399,DC4561,Dsidc Bawana,28.803268,77.042608
1400,U03305,C 4 Yamuna Vihar,28.702233,77.27835
1401,DC3632,Prehlad Pur,28.579683,77.101783
1402,U00306,AirForce Station (BaniCamp),28.63355,77.00245
1403,U00950,Fateh Nagar,28.631133,77.098567
1404,U02950,Lajpat Nagar Ring Road,28.5655,77.24565
1405,U03706,Kalyan Puri Terminal,28.615167,77.319267
1406,DC4272,Shivpuri Colony,28.651117,77.27835
1407,U03392,Swaran Cinema,28.662717,77.2863
1408,U00864,Janakpuri B-2,28.6263,77.0921
1409,DC4295,Rajdhani Enclave / Mahindra Park,28.683242,77.136765
1410,U02756,Dayal Singh College,28.592467,77.228717
1411,NS0392,Ridge Road,28.632626,77.188922
1412,NS0188,Mahipalpur Village (NH-8),28.5468,77.1237
1413,DC4249,China - Norve Embasy,28.600733,77.192517
1414,U04000A,Holy Family Hospital,28.5608,77.2727
1415,U01629,B-3 Keshav Puram,28.685683,77.163383
1416,U00266,Goela Dairy Crossing,28.591084,76.9931
1417,U02276,PS Mandir Marg,28.637583,77.202967
1418,U02137,IIT Gate,28.546167,77.195583
1419,U00369,Bamnoli Power Station,28.542017,77.018533
1420,U02489,Dispensary Paharganj,28.6449,77.2135
1421,U03576,Saini Enclave,28.6508,77.3056
1422,U02890,Tilak Bridge,28.6237,77.2393
1423,DC0012,Kanjhawala Chowk,28.73725,77.007217
1424,U00983,Rithala Village,28.717113,77.101457
1425,U03511,Power House,28.5073,77.3
1426,DC4335,Jhankar Crossing,28.579252,77.024293
1427,U01767,Vasant Vihar Depot,28.558917,77.172067
1428,U01589,Shani Mandir / Vasant Village,28.57572,77.159058
1429,U01885,RK Puram Sec-1,28.5642,77.1802
1430,DC3758,Indian Oil Corporation,28.686267,76.986533
1431,U01796,East Patel Nagar,28.6423,77.1733
1432,U03582,Nand Nagari Depot,28.698933,77.306333
1433,U01567,Vasant Kunj sec-B1,28.522483,77.1575
1434,DC3649,R R Line,28.5958,77.150933
1435,U00621,Rohini Sec-21,28.7188,77.069767
1436,U03076,Kartar Nagar,28.68945,77.25395
1437,U02739,Old Delhi Railway Station,28.660087,77.227876
1438,U01387,APS Colony/ Jharera Gaon,28.579967,77.144817
1439,DC3884,Dwarka Sec 21 Crossing Bharthal Chowk,28.554375,77.050144
1440,U01522,AIR Station,28.6265,77.1535
1441,U00712,District Centre Nazafgarh Road,28.630417,77.079983
1442,DC4186,Dwarka Sec-21 Crossing,28.551012,77.055873
1443,U01015,Rohini Sec 3/4/5/6 Xing (Vishram Chowk),28.7092,77.1054
1444,DC4209,Wazir Pur Industrial Area/ Ashok Vihar Crossing,28.701876,77.16732
1445,U01969,Gujranwala Town,28.6995,77.1849
1446,U02531,Delhi University,28.6882,77.2148
1447,U03516,Badarpur MB Road,28.4995,77.3005
1448,DC4123,Kali Bari Marg,28.630641,77.198066
1449,DC3735,Pusta No 5 Sonia Vihar,28.734467,77.246683
1450,DC3821,Sarita Vihar D Block / Madanpur Khadar Village,28.532133,77.2964
1451,U03025,IP Depot Metro Station,28.6195,77.249
1452,DC0035,Sunehari Pulla Depot / Jawahar Lal Nehru Stadium Terminal,28.591283,77.2333
1453,U00573,Kirari More,28.68245,77.063967
1454,U00016,Qadipur,28.5781,76.8798
1455,DC4421,Dewta Wala mandir,28.548976,76.930686
1456,U03503,Press Apartment,28.62285,77.2983
1457,U99991,Qutub Minar Metro Sation,28.51415,77.186167
1458,U03295,Laxmi Nagar / Shakarpur Crossing,28.629233,77.27735
1459,U02712,PS Kamla Market,28.643083,77.226
1460,U00261,Tuda Mandi,28.612458,76.99146
1462,U01732,Inderlok Metro Station,28.673217,77.169483
1463,DC4129,Geeta Colony,28.6551,77.273567
1464,U01595,Todapur Village,28.6228,77.1592
1465,U00954,Rajokari Crossing,28.522767,77.098683
1466,U00513,Nilothi Crossing,28.664852,77.053333
1467,U01410,PS Kirti Nagar,28.646473,77.14089
1468,DC3940,Radisson BLU Hotel,28.596183,77.03735
1469,U03633,Yamuna Sports Complex,28.659983,77.311733
1470,DC4252,South Enclave,28.610317,77.199317
1471,U99606,Meera Bagh,28.6588,77.091
1472,U99988,Lodhi Colony,28.514817,77.224533
1473,DC4229,Vivek Vihar Girls School,28.6691,77.318717
1474,DC3983,Chhajupur,28.68955,77.286983
1475,DC3960,Toll Tax Post,28.54325,77.013167
1476,DC4206,Ashok Vihar B Block,28.695926,77.170655
1478,U03144,DDA Market Kalkaji,28.5319,77.2591
1479,DC3795,Tahir Pur,28.691467,77.324817
1480,DC4398,Narain DharamKanta,28.670883,77.05775
1481,U02074,Model Town II,28.7040333333333,77.1905166666667
1482,U00756,JG 3 Block Vikaspuri,28.647117,77.0804
1483,U03600,GTB Hospital Xing,28.6901,77.3078
1484,U02630,J and K House,28.6012,77.2222
1485,U00195,Tikri Hospital,28.686597,76.978404
1486,U01211,Rajouri Garden Market,28.6457,77.127
1487,U02909,Supreme Court,28.621517,77.240333
1488,U01282,Shankar Vihar / National Highway 8,28.566633,77.13395
1489,U03124,Air Force Station,28.5114,77.256483
1490,U01941,Mukund Pur Chowk,28.7324,77.183583
1491,DC3695,PS Vikas Puri,28.631217,77.068583
1492,U00717,Kangra Niketan,28.6352,77.0805
1493,DC4498,Saraswati Kunj Jharoda,28.630863,76.965522
1494,U02728,Wazirabad Crossing GT Road,28.710499,77.227319
1495,DC4567,Krishna Vihar,28.789662,77.028066
1496,U03713,Ram Prastha Temple,28.6632,77.3202
1497,U00664,Vijay Enclave,28.60635,77.075033
1498,DC0130,Khichdipur,28.6258,77.31205
1499,U01044,Lajwanti Garden (Nangal Rai),28.6129,77.11
1500,DC1311,ESI Hospital,28.51425,77.281333
1501,DC4375,PS Ranhola,28.653517,77.03545
1502,U02704,Bhartiya Vidya Bhawan,28.6213,77.2264
1503,U01528WD,Wazirpur Depot,28.692033,77.153767
1504,DC3718,Shivaji Stadium,28.631033,77.215867
1505,U02792,Central School,28.559660,77.233602
1506,U00329,Nangli Sakrawati Crossing,28.616344,77.007924
1507,U01499,TV Tower (Power House),28.7,77.1514
1508,U02281,Padmani Enclave,28.5492,77.2034
1509,U03011,Gandhi Darshan,28.636983,77.247267
1510,DC3612,Anand Vihar ISBT Main Road,28.64696,77.317879
1511,U01550A,Jai Mata Market Tri Nagar Terminal,28.681483,77.155483
1512,U00903,C-4H Janakpuri,28.616333,77.09525
1513,U00353,Toll Tax Post,28.543267,77.0127
1514,U02151,IIT Gate,28.546,77.197
1515,U01223,Mahipal Pur Village,28.545867,77.126733
1516,U02605,Asian Market,28.5169,77.2208
1517,U02610,Timarpur,28.7006166666667,77.2212
1518,U99867,E.S.I. Hospital,28.5159,77.2805
1519,DC103,Baba Ramdev Mandir,28.6534166666667,77.1091333333333
1520,U02749,ISBT Maharana Pratap Bus (T),28.669,77.2286
1521,U01877,R K Puram Sec-4,28.563067,77.18
1522,DC0076,Don Basco School,28.527839,77.247072
1523,U01747,Adarsh Nagar Metro Station,28.717467,77.169917
1524,U01655,Ashok Vihar Xing,28.7021,77.16435
1525,DC0049,Power House Rohini Sec 24,28.726983,77.080267
1526,U03037,Bhogal (Jungpura),28.58465,77.249617
1527,U01607,Modern School Vasant Vihar F Block,28.55995,77.157267
1528,U01752,Satya Niketan Dhaula Kuan,28.588,77.170583
1529,DC4481,Keshav Kunj / Pochan Pur Crossing,28.557084,77.053209
1530,U02516,Kamla Nehru College/Niti Bag,28.55785,77.217533
1531,U02433,Khalsa College,28.694883,77.209683
1532,DC0118,Onida Factory,28.513267,77.297717
1533,DC4435,Dichau Village,28.639764,76.984106
1534,DC3858,Deep Vihar,28.738,77.0829
1535,U02389,Press Enclave,28.5279,77.2079
1536,U01433,Shakur Pur,28.685083,77.144817
1537,U02900,Zoo,28.608422,77.240216
1538,U00989,Hari Nagar Depot,28.624983,77.1022
1539,U99795A,Kanjhawala Chowk (Sarvodya Kanya Vidhyalaya),28.7376,77.008
1540,U00671,Prehladpur School,28.752783,77.075317
1541,U01867,Azadpur,28.7063,77.1795
1542,DC4521,Bajit Pur Xing,28.784999,77.023967
1543,DC4023,Ghumanhera Crossing,28.535283,76.909333
1544,U02124,Alpana Cinema (Model Town Mtr Stn),28.70265,77.19365
1545,U00768,Inder Enclave,28.680933,77.084217
1546,U03174,Kalkaji Mandir (MaaAnandmayeeMarg),28.5479,77.263
1547,U02306,Balmiki Mandir Marg,28.639967,77.204483
1548,U03087,Nehru Place,28.547317,77.254033
1549,U01329,Pittampura RU-Block,28.7077333333333,77.1345666666667
1550,DC4544,Sec 5/8 Narela,28.857128,77.097951
1552,U00836,Palam Colony Flyover,28.513817,77.091417
1554,U03121,Ashram (Hari Nagar),28.574146,77.256836
1555,U03167,Dharam Pura,28.670717,77.261917
1557,DC4066,Virender Nagar / Dilli Haat,28.6232,77.09615
1558,U02240,Meghdoot Bhawan,28.643667,77.201033
1559,U02099,Nanak Piyau / DTC Colony,28.691167,77.192667
1560,U01723,Inderlok Metro Station,28.6715,77.167733
1561,DC4458,Pandwala Khurd,28.562281,76.967398
1562,U03537,Neethi Apartment,28.6312,77.3017
1563,U03193,Seelampur Metro Station,28.67075,77.26545
1564,U01374,B Block New Moti Nagar,28.6635,77.1406
1565,DC3878,Kotla Vihar Phase II,28.648236,77.025586
1566,U99969,Liberty Cinema,28.6599,77.1891
1567,U02602,Lodhi Garden / Mousam Bhawan,28.590167,77.220617
1568,DC3778,Indra Kalyan Vihar,28.523283,77.2756
1569,U03408,Mother Dairy Crossing,28.618933,77.287867
1570,U03475,Govt Model School / Ambedkar Park,28.621733,77.294533
1571,U99949,Rani Bagh,28.68405,77.126083
1572,U03032,Rajeev Nagar,28.7062,77.2506
1573,U02716,ISBT Kashmere Gate (Lothian Road),28.66685,77.229517
1574,U03685,SFS Quarter Gazipur,28.630817,77.316617
1575,U03358,Ansari Health Care,28.5614,77.2836
1576,U03350,Shahdara (Shyam Lal College),28.6736,77.283533
1577,U02087,DDA Flats Lado Sarai,28.529983,77.192133
1578,U99809,Mubarakpur Xing,28.712817,77.027833
1579,U01475,Inder Puri JJ Colony,28.632,77.1491
1580,U02995,Nehru Place Apartments,28.5439,77.2461
1581,DC0115,Madanpur Khadar Crossing,28.529333,77.288417
1582,DC4338,Qutub Vihar Phase-I Kikar Stand,28.578247,77.02915
1583,U02274,Roshnara Road,28.6692,77.2045
1584,U01418,Karampura Terminal,28.660241,77.144044
1585,U01832,Mohan Singh Market,28.5668,77.1762
1586,U03060,C R Park Market II,28.537467,77.252683
1587,U00907,Desu Colony Janak Puri,28.610011,77.095348
1588,U01441,Pitampura ND Block,28.6959166666667,77.14585
1589,NS0253,COD Ring Road,28.612917,77.13735
1590,DC4292,Shakur Pur JJ Colony/ Britannia,28.684178,77.145419
1591,U01888,Moti Bagh 1,28.5804,77.1802
1592,DC4189,Lajpat Nagar (Ring Road),28.564933,77.242883
1593,U01382,Samrat Enclave,28.6853,77.141017
1594,U99942A,Gairison Eng.,28.6054,77.147567
1595,DC0032,Rohini Sec 22/24 Crossing,28.7203,77.069
1596,DC3977,Zafrabad,28.676117,77.271317
1597,U00220,Udaseen Ashram,28.621661,76.98823
1598,U01630,Indian AirLines/Priya Cinema,28.5587,77.158117
1599,DC4212,Shalimar Bagh AE Block,28.708248,77.166422
1600,U01864,Shankar Road,28.6391,77.179017
1601,U01455,Kathuria Public School (Sai Darbar Mandir),28.530983,77.1466
1602,U03551,Badarpur Border,28.493222,77.303353
1603,U03677,Gagan Cinema Wazirabad Road,28.697617,77.316867
1604,U02885,Delhi Gate,28.640767,77.238667
1605,U01010,Tihar Jail,28.6192,77.104417
1606,DC0100,Lodhi Colony,28.5847,77.2247
1607,U00112,Indra Service Station,28.608536,76.958755
1608,U02884,Jama Masjid,28.6508166666667,77.2384666666667
1609,U02706,Vivekanand Marg,28.640867,77.225733
1610,DC4504,Navin Palace,28.627806,76.967351
1611,U00497,Kirari Nahar,28.698817,77.053567
1612,U03395,Nirman Vihar Metro Station,28.63715,77.287067
1613,DC3675,Mangolpuri K Block (Sanjay Gandhi Hospital),28.694702,77.082072
1614,U03711,Dallu Pura,28.60875,77.32005
1615,DC4269,East Guru Angad Nagar,28.64115,77.282733
1616,U00386,Bawana Depot,28.803667,77.028517
1617,DC4518,Sultan Pur Xing,28.75634,77.015384
1618,DC3881,Bamnoli More,28.542449,77.029991
1619,U00013,Issapur Xing,28.57,76.8755
1620,DC4418,Ghuman Hera Village,28.532242,76.92242
1621,DC3732,Sonia Vihar,28.7324,77.246233
1622,U01376,F Block Kirti Nagar,28.651466,77.140817
1623,DC3963,Shri Golok Dham Bijwasan School,28.53355,77.059683
1624,DC3566,Nangli Dairy,28.620133,77.01795
1625,U02974,Police Station Nizamuddin (Dargah),28.591667,77.244633
1626,DC0084,Rampuri Gali No-13,28.5351,77.2592
1629,U02628A,Old Secretariat (Postal Account Office),28.6838833333333,77.2222833333333
1630,U01992,Shastri Nagar A Block,28.672401,77.186038
1631,U01281,Agarsen Hospital,28.6745333333333,77.1348166666667
1632,U02967,Delhi Gate / Ambedkar Stadium Terminal,28.639867,77.2437
1633,U00395,Kakrola Xing,28.6191,77.0314
1634,U99911,Jahangirpuri GT Road,28.7257,77.1628
1635,U01718,Ashok Vihar I Block,28.6853,77.1685
1636,DC4441,Daulat Pur Village,28.546873,76.963232
1637,U02932,Delhi Gate,28.637267,77.240917
1638,DC3904,PS Bawana,28.8066166666667,77.0231166666667
1639,U02887,Tilak Bridge,28.6253,77.2387
1640,U02200,Balti Factory,28.7467,77.1983
1642,U01039,Rohini Depot III,28.695633,77.109033
1643,U02560,Marina,28.6367,77.2183
1644,U99880,Shri Ram Institute,28.681252,77.212361
1645,U01076,Tagore Garden Metro Station / Tatarpur,28.6441,77.1136
1646,U02217,Geetanjali Enclave,28.5308,77.1997
1647,U02502PR,Prithvi Raj Road,28.596483,77.21755
1648,DC3692,A-3 Janak Puri,28.619583,77.079267
1649,DC3715,PSRI,28.5314,77.224183
1650,U01083,Swarg Ashram,28.6308,77.1149
1651,U99775A,Shalimar Bagh Xing,28.7088,77.1746
1652,U03944,Rajouri Garden,28.647738,77.119541
1653,U02297,Saket Metro Sation,28.520467,77.20265
1654,U02471,SJ Airport,28.584467,77.212267
1655,DC4378,TilangPur Kotla,28.649517,77.027167
1656,DC3841,Blood Bank,28.586733,77.11845
1657,U00488,Kiran Garden,28.620619,77.0049268
1658,DC3629,Matiyala Xing,28.605083,77.052383
1659,U01164,Supply Depot,28.606783,77.123367
1660,U03284,Yamuna Vihar Brij Puri,28.702667,77.275333
1661,U00288,Dichau Kalan Depot,28.629367,76.9977
1662,U00481,Rajdhani Park,28.6823,77.0487
1663,U02798,Pushpa Bhawan,28.52815,77.231567
1664,U02073,Prahlad Market,28.6538,77.1907
1665,U99729,Shaheed Park (Bhagat Singh Terminal),28.6351,77.241217
1666,DC3661,Old Seema Puri,28.680817,77.327867
1668,DC3638,NHW 8,28.5695,77.1326
1669,DC0137,Bank,28.5261,77.2736
1670,U02034,Karol Bagh Metro Station,28.6442,77.189
1671,U01338,Vaishali  Enclave / Kapil Vihar,28.6997,77.1371
1672,U03441,MIG Flates Loni Road,28.7004,77.295683
1673,U01285,Palam More,28.5682,77.1298
1674,U01764,Jahangirpuri E-Block,28.7324,77.1713
1675,U03099,Khajuri,28.704617,77.254433
1677,U01399,Karampura Terminal,28.661,77.142383
1678,U03086,Jagjit Nagar,28.686317,77.254567
1679,U01851,Azadpur Terminal,28.7072,77.1783
1680,U02779,Zakir Husain College,28.64115,77.229617
1681,U03300,Welcome Metro Station,28.672783,77.27715
1682,U01047,Hari Nagar Ghanta Ghar,28.624804,77.110518
1683,U02953,DPS / Police Station Nizamuddin(Lodhi Road),28.592933,77.242217
1684,DC3807,Satyawati College,28.69505,77.17952
1685,U02619,Mori Gate Terminal,28.665861,77.222085
1686,DC3761,Yojana Vihar/ Yamuna Sports Complex,28.663317,77.314617
1687,DC3949,Bhagwan Mahavir Hospital,28.687433,77.117117
1688,U02157,East Park Road,28.6508,77.1973
1689,U02139,PTS,28.531317,77.197033
1690,U03542,Ashirwad Apartment,28.6347,77.3022
1691,U00772,Inder Enclave,28.680517,77.084083
1692,U02473,AIIMS Ring Road,28.56915,77.212433
1693,U03073,Nizamuddin Road Bridge,28.603867,77.253667
1694,U00463,Nawada Gaon,28.620007,77.044129
1695,DC4447,Kangan Heri - I,28.548397,76.98869
1696,U03798,Bharti Public School,28.60535,77.333117
1697,U00575,Barwala School,28.759167,77.06275
1698,U02422,Sunheri Masjid/G Block,28.6096,77.2097
1699,DC4424,Pandwala Crossing,28.574027,76.952356
1700,DC4547,Sec 10A Pkt-6,28.849048,77.098446
1701,U01117,Madipur JJ Colony Metro Station,28.676398,77.118204
1702,U00352,Shivam Plywood,28.7352,77.0125833333333
1703,U01425,Moti Nagar,28.658867,77.144183
1704,U02826,Art Gallery,28.61035,77.233517
1705,U99630,Kirari Lal Mandir,28.697668,77.055991
1706,DC0038,Sec-24 Rohini Main Road,28.7271,77.0986
1707,U03462,Maruti,28.5217,77.2937
1708,U00731,Health Centre,28.592067,77.0813
1709,DC4324,Shyam Vihar,28.591403,77.000404
1710,U99894A,Tagore Garden,28.6477,77.1158
1711,U01677,Vasant Kunj Sec-A ILBS,28.5117,77.166767
1712,DC3538,Kiran Garden,28.620317,77.0468
1713,DC3929,Radisson BLU Hotel,28.596067,77.037467
1714,U03045,Bhogal,28.583533,77.250833
1715,DC4318,Chand Nagar,28.645221,77.099156
1716,DC3830,Aditi College,28.794167,77.036633
1717,DC4218,Shalimar Bagh BJ Block,28.712613,77.158747
1718,U00426,Karala Village,28.731583,77.036983
1719,DC4533,Kaushal Devi Netraheen Ashram,28.825479,77.069821
1720,U03515,Mansarovar Park Metro Station,28.675479,77.300119
1721,U00636,SFS Flat Sec-2 Power House,28.600333,77.071483
1722,U03189,Maharani Bagh / Ashram,28.576295,77.264457
1723,U99749A,B-3 Andh Vidyalaya,28.656483,77.108767
1724,U03570,Ras Vihar,28.6253,77.3051
1725,U03651,TELCO Gazipur,28.6409,77.3154
1726,U01175,Metal Forging,28.629,77.122817
1727,DC4132,Kasturba Gandhi Road Crossing,28.62198,77.223683
1728,U00653,Jivan park,28.6195,77.0736
1729,U01064,Rajeev Gandhi Cancer Hospital,28.71725,77.111833
1730,DC4195,Princess Park/ Airforce Noval Office Enclave,28.587302,77.066549
1731,U00913,B Block Mangolpuri,28.6891833333333,77.0954833333333
1732,U01860,Railway Colony (Sardar Patel Marg),28.600783,77.1785
1733,DC0001,Rithala School,28.7150666666667,77.1038666666667
1734,DC4301,Chander Lok,28.688635,77.135279
1735,U99816,Upper Ridge Road,28.63215,77.190017
1736,U02143,Shakti Nagar Nangia Park,28.679846,77.195746
1738,DC0107,Karkardooma Crossing,28.642917,77.2972
1739,U02539,Palika Kendra,28.62875,77.216467
1740,U01222,SPM College,28.6751,77.1281
1741,DC4387,Chanchal Park,28.6463,77.021333
1742,U01139X,Rohini Sec-16 Xing,28.7439,77.1208
1743,DC4341,St Marry School,28.5966333333333,77.14535
1744,U00472,Ranhola Village,28.655779,77.040633
1745,U02483,Vikas Sadan,28.5766,77.2134
1746,U02379,Safdurjung Hospital / AIIMS,28.56725,77.207733
1747,U00598,Uttam Nagar Terminal,28.625517,77.066133
1748,U99621,Samalkha More,28.537967,77.093683
1749,U01739,Vasant Kunj Sec-A Pkt-BC,28.5104,77.169617
1750,U99930ASTL,Indian Oil Station,28.577283,77.108833
1751,DC3698,CRPF Camp Keshopur,28.646361,77.084243
1753,DC3721,Naraina Vihar / Indra Market,28.626533,77.134783
1754,U02863,Lady Shri Ram College,28.5588,77.2371
1755,U02361,Bhai Parmanand Colony,28.7103,77.2086
1757,U01944,New Rajender Nagar,28.6366,77.183683
1758,DC3784,Qutub Minar Metro Sation,28.511733,77.1844
1759,U01086,Kali Mata Mandir,28.6969,77.1154
1760,U03724,Surya Nagar,28.666933,77.321467
1761,DC3678,Safdurjang Enclave,28.566078,77.190996
1762,U02411,Ice Factory,28.666851,77.209097
1763,U99980,Nehru Vihar,28.7116,77.2226
1764,DC4470,Mundhela School II,28.614073,76.895727
1765,U01174,Sai Baba Chowk,28.708817,77.124017
1766,DC4364,Keshav Nagar Mukti Ashram,28.779253,77.179936
1767,U00957,Shahbad Dairy A Block,28.7459,77.0985
1769,U01257,Mayapuri Chowk (Ring Road),28.638567,77.129883
1770,U03257,Bharat Nagar Crossing,28.5619,77.2723
1771,U99852A,Unani Hospital / Okhla Ext Thokar 3,28.558951,77.296058
1772,U01061,Shahbad Gaon,28.745283,77.111267
1774,U02293Z,Kendriya Terminal,28.6173,77.204
1775,DC4012,Malikpur Crossing,28.552433,76.907767
1776,DC0021,Geeta Colony Road Crossing,28.6512,77.2525
1777,DC3989,Shiv Mandir,28.6898,77.283783
1778,DC3966,Kapashera More,28.530683,77.086417
1779,DC4507,Surehra Village,28.5985889521003,76.9363090139898
1780,DC3870,BrahmPuri Colony,28.652115,77.032597
1781,DC4530,Jain Shukla Mandir,28.81186,77.053907
1782,U03161,Tughlaqabad Extension,28.5256,77.261
1783,DC0104,Surya Niketan,28.655617,77.310417
1784,U02025,Dev Nagar / Khalsa College,28.6553,77.1883
1785,U02893,Subhash Park,28.649317,77.23935
1786,U03634,Bank Colony,28.698,77.3115
1787,U00820,C2B Janakpuri,28.621222,77.088818
1788,DC3555,Jharoda Crossing / Nazafgarh Terminal,28.613678,76.980212
1789,U01879,RK Puram Sec-1,28.5643,77.1798
1790,U00993,St Xavier School,28.7455,77.1027
1791,U02973,ITO,28.627983,77.244433
1792,U00696,Dwarka Puri,28.607483,77.078267
1793,U03080,Kartar Nagar,28.68945,77.254167
1794,U02597,Firoz Shah Road,28.6208,77.2206
1795,U01779,JA Block Ashok Vihar,28.686767,77.172517
1796,U03095,Tara Apartments Terminal,28.523883,77.2552
1797,U01524,Pandav Nagar,28.650133,77.15335
1798,U03290,Okhla Tank,28.548383,77.276583
1799,DC3601,Mukarba Chowk,28.73475,77.155867
1800,U02860,Ishpat Bhawan,28.5924,77.23675
1801,U00527SMPX,Bharthal Under Pass,28.5476333333333,77.05735
1802,DC4381,BakkarWala Crossing,28.64335,77.016067
1803,DC3744,Gatta Factory Sonia Vihar,28.72945,77.24565
1804,DC4304,Lok Vihar,28.692995,77.134923
1805,DC3767,Christian Kabristan,28.730367,77.190083
1807,U00730,District Centre Outer Ring Road,28.6334,77.0811
1808,U00167,Prem Nursery,28.610333,76.9713
1809,DC3532,Bhagini Nivedita College,28.617904,76.931464
1810,DC3781,CRPF Camp Okhla Phase 1,28.528783,77.270333
1811,U02667,Lodhi Colony Market,28.584567,77.223367
1812,U02413,Panchsheel Club,28.546,77.2093
1813,U03743,Kondali Old,28.612978,77.322856
1814,U02722,Ambedkar Nagar Terminal,28.515588,77.22728
1815,DC4069,Sir Ganga Ram Hospital,28.63894,77.18816
1816,U02324,Rani Jhansi Road Jhande Walan,28.6456,77.205
1817,U99613,Shivam Plywood,28.735453,77.012023
1818,U01026,DA Block Hari Nagar,28.6251,77.106867
1819,U02828,Patiala House,28.6166,77.2338
1821,U03457,Radheypuri,28.654,77.2925
1822,U99798A,Radha Swami Satsang,28.7339833333333,77.02075
1823,U01787,R-Block Rajendra Nagar,28.6328,77.173
1824,U00632,Mahaveer Enclave Part II  and  III,28.603617,77.07105
1825,U00684,Prehladpur School,28.75305,77.07475
1826,U00459,Dwarka Sec 3-4,28.602633,77.043217
1827,U02065,Prahlad Market,28.6539,77.1909
1829,U99823,Mayapuri Depot,28.63685,77.12835
1830,U01840,Jahangir Puri Outer Ring Road,28.7346,77.176533
1831,U02128,Nauroji Nagar,28.569633,77.195533
1832,DC4155,M Block Sarojini Nagar,28.578472,77.189692
1833,U99922,St Stephen Hospital,28.6671,77.2149
1834,U01574,Prem Bari Pull,28.700267,77.158283
1835,U02019,R K Puram Sec-2,28.561567,77.188233
1836,U02948,Shastri Park Metro Depot,28.673433,77.241183
1837,U01581,Shadipur Metro Station,28.6515,77.1587
1838,U03379,Ganesh Nagar,28.621017,77.285233
1839,U00776,Janakpuri East Metro Station/ Nangli Zalib,28.633,77.0857
1840,DC3844,CPRTI/ Delhi Jal Board,28.63715,77.1924
1841,U01781,New Sabzi Mandi,28.7146,77.1724
1842,U03589,GTB Hospital Xing,28.6898,77.3066
1843,U03674,Super Bazar,28.613567,77.316317
1844,U02198,Guru Govind Singh Marg,28.655517,77.198983
1845,U01617,NASC Dasghara,28.6255,77.1621
1846,DC3704,Krishi Bhawan,28.617467,77.213083
1847,U02805,ISBT Maharana Pratap Bus Terminal,28.66872818,77.23190647
1848,U02519,Hauj Rani,28.5297,77.2158
1849,DC4241,Surya Nagar,28.667917,77.321283
1850,U02650,Ajmeri Gate / Kamla Market,28.644519,77.223625
1851,DC3578,Shastri Park Pusta Road,28.674017,77.256133
1852,U01448,Pitampura ND Block,28.6954,77.1461
1853,DC4570,Prem Piyau,28.765949,77.016532
1854,DC3907,C Block Mangol Puri,28.692483,77.09145
1855,DC4593,PWD Office / Aruna Nagar Ring Road,28.70253,77.22733
1856,U03466,Prehlad Pur,28.5,77.294633
1857,U02708,Akbar Road,28.610633,77.22595
1858,U03201,Bala Sahib Gurudwara,28.5812,77.266
1859,U03023,IP Depot Metro Station,28.6202,77.2485
1860,DC4029,Mitraon Village (Kair Village Road),28.608446,76.944717
1861,DC3641,Palam Airport Bypass,28.569417,77.123317
1862,U02581,Eastern Court,28.6239,77.219
1863,U03793,Dilshad Garden Depot Cluster,28.685545,77.331211
1864,U00849,Meera Bagh,28.659,77.091483
1865,U03155,Rampuri Gali No 13,28.53475,77.2601
1866,U02734,Siri Fort Road,28.55355,77.228117
1867,U00974,Sagarpur Vashisht Park,28.6092,77.1011
1868,DC0087,Raghubir Nagar F Block,28.65235,77.106567
1869,U99919,Humayun Road,28.603333,77.2272
1870,DC4115,St. Lawrence School,28.65235,77.269317
1871,DC4367,Aman Puri,28.673083,77.05975
1872,U03211,DDA Kalkaji Extension,28.527,77.267
1873,DC4344,Amrohi More,28.574383,77.05115
1874,U00462,Agar Nagar,28.7032,77.04415
1875,DC4152,Radisson Hotel / Mahipal Pur Crossing,28.545933,77.1232
1876,U03519,Badarpur M B Road,28.49935,77.29915
1877,DC4321,Khayala Colony Terminal,28.652202,77.095739
1878,DC4298,Mahindra Park Road No-44,28.684076,77.136129
1879,U02147,Talkatora Stadium,28.626217,77.196417
1880,U00440,MRV School Sec 13 Dwarka,28.604,77.039
1881,U00587,Begumpur,28.7216833333333,77.065
1882,U02720,Shahjahan Road UPSC,28.6074,77.226933
1883,U02032,Gulabi Bagh,28.675,77.1883
1885,U01230,Mayapuri Depot,28.636933,77.1289
1886,U02656,Police Station Timarpur,28.707017,77.223917
1887,U03504,Onida Factory,28.513183,77.297783
1888,U00612,Police Station Vikaspuri,28.63145,77.068767
1889,U00557,Barwala Village,28.7604,77.060533
1890,U02149,Dr. RML Hospital,28.6224666666667,77.19665
1891,U03223,Seelam Pur Metro Mall,28.670962,77.268275
1892,U00443,Karala School,28.7308166666667,77.0396666666667
1893,DC4444,Shikar Pur Crossing,28.545445,76.965281
1894,U03999A,Holy Family Hospital,28.5604,77.273
1895,U02208,Shakti Nagar,28.6804,77.1993
1896,U01899,ISTM,28.552283,77.181167
1897,U03697,National Highway 24 Crossing,28.6272,77.318217
1898,U02444,Red Cross Road,28.618035,77.210453
1899,U03307,Laxmi Nagar,28.6313,77.2789
1900,DC4052,Krishna Marg Kardam Puri,28.696783,77.28195
1901,DC4198,NHAI Building/ Dwarka Sec-10 Metro Station,28.579068,77.059118
1902,DC4590,Raksha Vigyan Kendra / Metcalf House,28.68341,77.22923
1903,U03421,Madanpur Khadar Crossing,28.52965,77.287933
1904,DC4490,S.Sr. Kanya Vidhyalaya,28.646696,76.955883
1905,U01181,Chhawani Hospital,28.59857,77.12434
1906,U02645,Statesman House,28.6306,77.2238
1907,U02093,Lado Sarai (Crossing),28.522833,77.19185
1908,U03812A,Mayur Vihar Ph-III,28.614033,77.33735
1909,U99829,Samalka Village,28.534183,77.090267
1910,U99743Z,Sheikh Sarai Ph-II,28.5336,77.232
1911,DC3910,BE Block Hari Nagar/ESI Dispensary,28.6274,77.121683
1912,U02532,Gandhi Vihar,28.7221,77.2161333333333
1913,U00920,Shahbad Dairy,28.7465,77.096
1915,U02633,Gopal Pur Crossing / Jagatpur Crossing,28.7196,77.2228
1916,DC3887,Pochan Pur Village,28.5589,77.043833
1917,U02397,Azad Market,28.6643,77.2081
1918,DC3595,ISBT Bridge,28.669383,77.229183
1919,U00303,Sir Chhotu Ram Polytechnic,28.70675,77.001217
1920,U00876,Janak Cinema,28.610936,77.093097
1921,U01081,Rohini Depot 1 Sec 6 (Ambedkar Hospital),28.7158,77.113983
1922,DC4467,Mundhela Kalan Village,28.609734,76.893466
1923,U02350,GTB Nagar,28.6982666666667,77.20665
1924,DC4075,Nathu Colony,28.689611,77.30123
1925,DC3681,Gazi Pur Dairy Farm,28.620867,77.32055
1926,U01343,Badli Railway Staion,28.7453,77.137333
1927,DC3635,Palam Airport Bypass,28.56955,77.123533
1928,U01252,Madhuban Chowk,28.7028,77.1302
1929,U03061,Rajdoot Hotel,28.5825,77.2527
1930,U03411,B R Ambedkar College (Loni Road Xing),28.7015,77.2882
1932,U01821,R K Puram Nab,28.56102,77.17573
1933,DC0018,Azad Pur Terminal,28.707535,77.178192
1934,DC0041,Sec-24 Rohini Main Road,28.727,77.0984
1935,U01458IP,Inderpuri Krishi Kunj,28.637749,77.146347
1936,U01603,Vasant Kunj Sec-D/3-4,28.5172,77.16075
1937,DC3992,Zafrabad School,28.683533,77.27525
1938,U01453,Samaypur School,28.743983,77.143
1939,U01965BN,Bharat Nagar Crossing/Sri Nagar Colony,28.681,77.1847
1940,U02675,Ravindra Nagar,28.598467,77.225
1941,U00361,Shiv Shankar Dharam Kanta,28.6837,77.0117
1942,U02258,IIT Gate,28.5462,77.2025
1943,U01055,Hari Nagar Ghanta Ghar,28.62455,77.11095
1944,U01513,Mukarba Chowk,28.732567,77.152
1945,DC0070,KrishiBhawan/RailBhawanMetroStation,28.615,77.2124
1946,DC3658,Daya Basti Flyover,28.6665,77.170033
1947,U00545,Aman Puri,28.673183,77.0597
1948,U01960,R K Puram Sec-3,28.5567,77.1845
1949,DC3804,Shahdara Terminal,28.6745,77.28685
1950,DC4450,Rishal Vihar,28.553617,76.992947
1952,U02628,Old Secretariat (Postal Account Office),28.6837833333333,77.22215
1953,U01491,Ram Pura,28.671883,77.153033
1954,DC4235,PS Vivek Vihar,28.666583,77.307017
1955,DC3932,Bodhik Sampda Bhawan,28.597833,77.026167
1956,U02880,Defence Colony (Lajpat Nagar Mtr Stn),28.573217,77.237783
1957,U02299,Dhakka Village,28.7087,77.2045
1958,DC4258,C6 B Janakpuri,28.613283,77.098533
1959,U01110,Engg College Shahbad,28.744933,77.117533
1960,DC3741,Sabhapur More,28.75015,77.243933
1961,U01625,Dhaula Kuan,28.592987,77.162867
1962,U02891,Gupta Market,28.565133,77.2397
1963,U01858,Andheria Bagh More,28.509433,77.17875
1964,U99808A,Madanpur Dabas,28.716406,77.02804
1965,U03564,Himalaya Apartment,28.6322,77.3047
1966,U03430,Hans Apartment,28.6582,77.29
1967,U02428,Begumpur,28.536933,77.209867
1968,U03770,DLF More,28.6929,77.3272
1969,U01532,Sanjay Gandhi Transport Nagar,28.7402,77.154
1970,U01511,Campa Cola,28.661933,77.1519
1971,U01633,Dhaula Kuan,28.598683,77.1632
1972,U00322,Desu Sub Station,28.7232166666667,77.0044833333333
1973,DC4215,Shalimar Bagh BH Block,28.71536,77.156967
1974,U02063,Kalyan Vihar Terminal,28.693735,77.199108
1975,U02809,Sheikh Sarai Phase 2,28.5325,77.2319
1976,U00627,Vikas Puri Crossing,28.626981,77.070541
1977,U02798PB,Pushpa Bhawan,28.527867,77.231317
1978,U03072Z,DB College,28.539117,77.253733
1979,DC4158,Chanakya Bhawan,28.583514,77.192146
1980,U02152,Burari Crossing,28.7285,77.197383
1981,U01853,Aradhana Enclave,28.574567,77.17855
1982,DC4384,Baprola School,28.638417,77.007883
1983,U01793,RK Puram Sec-12(Sangam Cinema),28.5736,77.1735
1984,U02286,Police Station Roop Nagar / Banglow Road,28.684821,77.203792
1985,U00679,Dholi Piao,28.629,77.076367
1986,U03007P,Indira Gandhi Stadium,28.6336,77.2469
1987,U02261,Guru Govind Singh Crossing (Faiz Road),28.653016,77.202409
1988,U00796,Budh Vihar,28.704333,77.086917
1989,U03342,Pusta Crossing / Akhardham Temple,28.6124,77.2823
1990,U02849,Yamuna Bazar / GGS Universicy,28.664783,77.235467
1991,U02564,Marina,28.6369,77.2185
1992,U01806,N.P.L Colony,28.6379,77.1744
1993,U03539,Kotla Village,28.6132,77.302
1995,U03321,Prem Nagar,28.5044,77.2793
1996,U03050,Kalkaji B-Block,28.5435,77.2515
1997,U02833,Kouria Bridge,28.6601,77.2344
1998,U03157,Rainy Well,28.6283,77.260633
1999,DC4238,PS Vivek Vihar,28.666733,77.307017
2000,DC3575,ISBT Bridge,28.669367,77.22855
2001,U03614,Telephone Exchange,28.676067,77.30925
2002,U02555,Claridges Hotel,28.602517,77.217783
2003,DC4261,Ramleela Ground Geeta Colony,28.654567,77.274817
2004,U02077,Laxmi Vihar,28.7600333333333,77.1910166666667
2005,U01318,Shastri Bazar,28.5965,77.1358
2006,DC4573,SDM Court Kanjhawala,28.740506,77.009554
2007,U03399,Sarita Vihar,28.53225,77.287133
2008,DC4112,Jheel Terminal,28.658667,77.272233
2009,DC4361,Ibrahim Pur More,28.775565,77.179417
2010,DC3969,Shri Golok Dham Bijwasan School,28.533517,77.059567
2011,U01079,Janak Setu,28.6107,77.1139
2012,U99876,Dariyapur Kalan School,28.8089833333333,77.0150333333333
2013,DC3724,Gurudwara Nanak Sar,28.710233,77.241367
2014,U01287,Naraina Vihar,28.625783,77.134167
2015,U00962,Mangol Puri B Block,28.69005,77.0965166666667
2016,U02004,Telephone Exchange,28.6971,77.1869
2017,U03004,Gandhi Darshan,28.636883,77.246683
2018,U01768,Vasant Vihar Depot,28.558333,77.17215
2019,U02748,Baroda House,28.617358,77.228653
2020,DC0090,Raghubir Nagar Gurudwara A Block,28.6553333333333,77.1135666666667
2021,U03364,Central Workshop II,28.516367,77.2836
2022,U03647,Dilshad Garden GT Road,28.675883,77.3118
2023,U00795,Chhath Park Mangol Puri,28.692583,77.086783
2024,U01305,Naraina Vihar / Indra Market,28.626883,77.135333
2025,U02302,Aurobindo College,28.5326,77.2046
2026,DC0101,Shreshtha Vihar,28.65945,77.318483
2027,DC4032,Radha Swami Satsang,28.620583,77.307117
2028,U02601,Banarsi Daas Estate Timarpur,28.697306,77.220577
2029,U03070,Jamia Hamdard Library,28.517133,77.253667
2030,DC3986,Hardev Puri,28.689357,77.295653
2032,U02636,Max Mueller Marg,28.596,77.2233
2033,DC4009,Ujwa School,28.570387,76.90719
2034,DC4527,Bawana Dispensary,28.800983,77.03726
2035,U01324,Mahindra Park,28.6834,77.136683
2036,U02461,INS Hostel,28.6962166666667,77.2116
2037,DC0135,Maharani Bagh (Ashram),28.574941,77.262217
2038,U00319,Kanjhawala Depot (Narela Road),28.726917,77.003117
2039,U00997,Rohini Sec-3/4 Xing,28.7062,77.103
2040,U03067,Jamia Hamdard Library,28.5172,77.2534
2041,U02029,Kaushik Enclave,28.761067,77.188617
2042,U02190,Faiz Road,28.6494,77.1987
