stop_id,stop_code,stop_name,stop_lat,stop_lon
0,U01761,Adarsh Nagar / Bharola Village,28.715917,77.170867
1,DC4248,British High Comission,28.598533,77.191383
2,U02398,Azad Market,28.6647,77.2084
3,U02416,Kidwai Nagar,28.5757,77.2097
4,DC4271,Rashid Market,28.6502,77.278667
5,U03074,Nehru Nagar,28.56915,77.253883
6,U02904,Sunder Nagar,28.602217,77.2404
7,DC4225,Suraj Mal Vihar,28.661283,77.303517
8,U02563,National Archives,28.6147,77.2185
9,U02922,Darya Ganj,28.6460833333333,77.2404
10,U00314,Nangli Sakrawati,28.614667,77.0034
11,U01623,B-4 Keshav Puram,28.68755,77.1625
12,U99637,Bawana Village,28.801917,77.039067
13,U00086,Mitraon Village,28.608213,76.947336
14,U00193,NajafGarh Dhansa Stand,28.6115,76.977817
15,U03678,Super Bazar,28.61335,77.3162
16,U99639,Kapashera Crossing,28.528867,77.08675
17,U03409,Batla House,28.562317,77.2861
18,U00429,Karala Village,28.7315,77.037
19,U00786,Manglapuri / Palam Village,28.5893166666667,77.08635
20,U02926,Delhi Gate (JLN Marg),28.640024,77.238077
21,U00828,Udyog Nagar,28.6803,77.0893
22,U01798,Ashok Vihar Water Tank,28.687017,77.173667
23,DC4148,Centaur Hotel / New Custom House,28.553099,77.103543
24,DC3956,Bhagwan Mahavir Hospital,28.687467,77.118117
25,U03522,Badarpur Village,28.502067,77.300033
26,U03766,Mayur Vihar Phase 3 Crossing,28.6018,77.32735
27,DC4394,Ranhola Extension,28.657906,77.043018
28,NS0252,COD Ring Road,28.613,77.1367166666667
29,DC4294,Samrat Enclave,28.685237,77.140696
30,DC4540,P S Narela,28.853365,77.088567
31,U02690,ISBT Nityanand Marg,28.668342,77.225091
32,U03580,Nand Nagari Depot,28.69905,77.306183
33,DC0008,Karala Crossing,28.7316,77.0319
34,U01038,Subhash Nagar Crossing / Mukherji Park,28.64192,77.108859
35,U01075,Rohini Depot 1 Sec 6,28.71645,77.113467
36,U00305,Chhawla Village,28.5613,77.0021
37,U02615,Ayurvigyan Nagar,28.5604,77.2214
38,DC3691,A-3 Janak Puri,28.619633,77.079183
39,U00430,Mundka Xing,28.682267,77.035917
40,U02162,Roop Nagar,28.6842333333333,77.2023166666667
41,U03695,Jhilmil Xing,28.6763,77.3175
42,U02486,Panchsheel Club,28.543183,77.213617
43,DC4371,Rishal Garden,28.661717,77.04875
44,U01934,Anand Parvat Terminal,28.657113,77.1846
45,DC3979,Zafrabad School,28.68345,77.275017
46,U01725,Shalimar Bagh (Ring Road),28.7033,77.1689
47,DC3777,Balak Ram Hospital,28.707127,77.22279
48,U02525,Hauz Rani,28.5294,77.2159
49,U02714,PS Kamla Market,28.6429,77.2267
50,U02599,Timarpur,28.7012333333333,77.2212666666667
51,U00304,Chhawla Village,28.561492,77.001912
52,U01543,Shadipur Depot,28.653117,77.1555
53,DC3568,Dwarka More Metro Station (Sewak Park),28.619332,77.032508
54,DC3545,NajafGarh Delhi Gate,28.61255,76.986917
55,DC1101,Okhla Depot IV CWS II,28.518333,77.284867
56,DC0058,Mukharji Nagar Tank,28.7103,77.2111
57,U01621,B-4 Keshav Puram,28.687583,77.162267
58,U02119,DB Gupta Market,28.651733,77.1946
59,U02769,Pragati Vihar,28.5879,77.2293
60,U03006,ITO Ring Road,28.629817,77.24665
61,U00494,Sultan Pur Crossing / Poothkhurd,28.767867,77.049417
62,DC0114,Kalka Ji Crossing,28.55735,77.26965
63,U02369,Shri Ram College,28.689065,77.206953
64,U00375,Chanchal Park,28.646241,77.021823
65,U01449,Kathuria Public School (Sai Darbar Mandir),28.5309,77.146333
66,U01308,Naraina Vihar,28.627517,77.134183
67,DC3854,Prehlad Vihar (Deep Vihar),28.7348,77.0872
68,U01784,Moti Bagh Gurudawara Nanakpura,28.5848,77.1722
69,U03195,Laghu Udyog Sansthan(ModiMill),28.555533,77.265167
70,DC4211,Shalimar Bagh A Block,28.704881,77.169817
71,DC4188,The Uppal Hotel,28.536233,77.102017
72,U02866,Lady Shri Ram College,28.559,77.2373
73,U99725,AkbarRoad,28.61055,77.226083
74,U00761,APS Colony,28.574833,77.141583
75,DC4454,Purani Basti Rewla Tajpur,28.569584,76.977685
76,DC4231,Vivek Vihar Terminal,28.668333,77.314417
77,U01822KWP,Kewal Park,28.7138,77.1799
78,DC3936,National Law University Delhi,28.598367,77.023583
79,DC0099,Onida Factory,28.513,77.2976
80,U02282,Race Course,28.5966,77.2033
81,U01372,Haidarpur Water Works,28.72155,77.140383
82,U02453,BBM Cluster Depot,28.703583,77.210683
83,U03353,Shakarpur,28.6338,77.28215
84,U01357,Punjabi Bagh East,28.6711,77.1393
85,DC4125,Ramesh Park,28.635617,77.26965
86,U03162,SNPD,28.561333,77.260117
87,U00385,Bawana Depot,28.803894,77.028469
88,DC4019,Dauralla Border,28.507925,76.896927
89,DC4517,Chandpur Xing,28.751714,77.014508
90,U00949,Shahbad Dairy Block A,28.7458,77.0985
91,DC3631,Palam Colony Flyover,28.51395,77.091517
92,DC4709,Dabri Crossing (Pankha Road),28.613716,77.085675
93,U00302,Sir Chhotu Ram Polytechnic,28.707177,77.001084
94,U02303,Aurobindo College,28.5327,77.2046
95,U00860,Sunder Vihar,28.6635,77.09225
96,U02043,Jia Sarai,28.5483,77.1897
97,NS0391,Ridge Road,28.632683,77.18875
98,DC4062,C2D Janakpuri,28.614332,77.08708
99,U01432,DAV School,28.6998,77.1452
100,U99774,Mata Din Kaur Public School,28.5977,76.8988
101,DC3797,Natthupura,28.768867,77.180733
102,U01817,South Moti Bagh,28.578,77.175
103,DC3751,Shaheed Bhagat Singh Marg,28.63325,77.212283
104,U02964,Pumposh Enclave,28.5437,77.2438
105,U03604,Trilokpuri 13 Block,28.612817,77.306183
106,U03101,Tara Apartment,28.522667,77.25545
107,U99914,ISBT Kashmere Gate,28.666867,77.229367
108,U00503,Om Vihar,28.621124,77.051543
109,DC0111,Samaspur Jagir Village,28.615767,77.285467
110,U03030,Narmada Apartment,28.527104,77.251689
111,U01758,APS Colony,28.5744,77.142067
112,U01302,Naraina Vihar,28.625783,77.134233
113,U99799,Shaheed Bhagat Singh Nagar,28.725017,77.029167
114,U00900,Peera Garhi Chowk,28.6783,77.0947
115,U02947,DPS / Police Station Nizamuddin (Lodhi Road),28.593133,77.241917
116,DC3671,Kamal Cinema,28.565108,77.198924
117,U00009,Dhansa Village,28.557833,76.867383
118,U01717,South Patel Nagar (Metro Station),28.6453,77.1683
119,DC3648,ARSD College / Dhaula Kuan,28.590667,77.1683
120,U00482,Sukhbeer Nagar,28.727633,77.04895
121,DC4334,Goyla Dairy,28.579766,77.021478
122,DC4500,New Anaj Mandi,28.618964,76.974469
123,DC4185,Dwarka Sec-21 Crossing,28.550845,77.056046
124,DC3548,Prem Nursary,28.610183,76.971267
125,DC4208,Wazir Pur Industrial Area/ Ashok Vihar Crossing,28.701641,77.167185
126,DC4477,Bharthal Village (Shyam Mandir),28.543055,77.043846
127,U02629,Ayurvigyan Nagar,28.5614,77.2222
128,U01101,Rohini Sec 7/9,28.7136,77.1171
129,DC0028,St Stephen Hospital,28.6674,77.2143
130,U00255,Durga Vihar,28.5964,76.9904
131,U00819,C-2-B Janakpuri,28.6219,77.0885
132,U03531,Saraswati Kunj,28.623867,77.301483
133,U99990MC,Central School (MCKR),28.562733,77.2328
134,U01828,Andheria More (Chhatarpur Metro Station),28.507994,77.175266
135,U02700,Ludlow Castle,28.6724,77.226
136,U03327,Shakar Pur School Block,28.6271,77.279467
137,DC3877,TilangPur Kotla,28.649733,77.027233
138,U00500,Rishal Garden,28.6619,77.048783
139,U01371,Punjabi Bagh Terminal,28.675467,77.1404
140,U01966,Model Town-III,28.7061,77.1853
141,U02346,Kendriya Terminal (Pt. Pant Marg),28.62155,77.2062166666667
142,U03052,Railway Road Bridge,28.610933,77.2518
143,U00615,Sultan Puri Crossing,28.682317,77.068783
144,U03126,Shastri Park,28.6726,77.2571
145,U03501,Government Senior Secondary School,28.6317,77.2979
146,DC0079,Chirag Dilli,28.5415,77.2296
147,U01128,PS Mayapuri,28.625217,77.119867
148,DC4414,KharKhari Rondh,28.561696,76.941952
149,DC105,Shaheen Bagh Thokar No 8 (A F Enclave ),28.54925,77.303983
150,U02901,ITPO Gate No. 3,28.6155,77.24015
151,DC4437,Shiv Enclave Dichau,28.623999,76.984556
152,U00217,Dichau Chowk,28.6173,76.983867
153,DC4460,Pandwala Village,28.5657,76.963135
154,U01158,Sadar Bazar,28.5954,77.1227
155,U01977,Model Town III,28.7059333333333,77.18525
156,U01333,Wood Market (Mansarovar Garden),28.638199,77.132423
157,U02757,Bharti Nagar,28.596683,77.228717
158,DC3959,Sunehari Pulla Depot / Jawaharlal  Nehru Stadium Terminal,28.5901157,77.2334405
159,U01288,Shankar Vihar/ National Highway 8,28.566367,77.134283
160,U01236,Mahipal Pur Village,28.54571,77.126809
161,U02237RS,Ravinder Rang Shala,28.640867,77.194933
162,U01835,R K Puram Nab,28.56125,77.1763
163,U00194,Tikri Hospital,28.6869,76.9783
164,U01114,Rangpuri,28.542143,77.118347
165,U02481,Udyog Bhawan,28.6126,77.2122
166,U02515,Vishwa Vidyalaya Metro Station,28.695083,77.215367
167,DC4397,ShivRam Park,28.667833,77.055183
168,U00736,Kapashera Border,28.5217,77.082117
169,U02176,Sant Nagar A-1,28.7387,77.1975
170,U01025,D Block Janakpuri,28.60785,77.10395
171,U03246,B-Block Yamuna Vihar,28.703117,77.270033
172,DC3837,APS School Dhaula Kuan,28.601533,77.168417
173,U01057,DDU Hospital,28.6282,77.111
174,U99789A,Rani Khera Bus Stand,28.7031,77.0279
175,U02112,Rana Pratap Bagh,28.6882666666667,77.1937
176,DC3625,Swaroop Nagar JJ Colony,28.7559,77.162867
177,U02468,HaujRani / MaxHospital,28.5283,77.212
178,U02291,Model Basti,28.6572,77.2038
179,U01096A,More Lines,28.583167,77.116567
180,DC3860,Kirari Railway Xing,28.686583,77.0625
181,U01630PC,Indian AirLine Colony/Priya Cinema,28.558583,77.158
182,U02596,South Extension,28.568367,77.22315
183,U01272,PitampuraMetro Stn (MadhuvanChowk),28.7029,77.1325
184,DC4523,Ishwar Colony,28.794758,77.029958
185,U02309,SJ Hospital,28.569483,77.204517
186,U01498,TV Tower (Power House),28.6997,77.1512
187,DC3982,Shiv Mandir,28.689933,77.28395
188,U01837,Shastri Nagar E Block,28.6711,77.17605
189,U02652,DIPSAR College of Pharmacy,28.5161,77.2237
190,U00932,Tilak Nagar,28.6367,77.097
191,U99881,Gagan Vihar,28.6455,77.2979
192,U02288,Gole Market,28.6347,77.2037
193,DC4374,Ranhola II,28.654617,77.038017
194,DC4703,Chandan Market Greater Kailash- II,28.531741,77.245673
195,DC3774,Christian Kabristan,28.7307,77.1902
196,U03772,Seemapuri Old,28.681,77.3279
197,U01035,New Multan Nagar,28.67755,77.1116
198,U00446,Swarn Park,28.6824,77.0408
199,DC4311,Dichau Kalan Depot,28.629012,76.997728
200,U03662,Gazipur Village,28.63225,77.315683
201,DC3688,Shaheen Bagh Thokar No. 8 (AF Enclave),28.549117,77.303983
202,DC3588,Garhi Maidu,28.6992,77.255533
203,U01467,Power House,28.673017,77.14725
204,U03384,East Azad Nagar,28.666167,77.283917
205,U02747,Bharti Nagar,28.5978,77.228467
206,U02105,Pusa Road Petrol Pump Sadhu Vaswani Marg,28.644583,77.192833
207,DC3542,Nangli Dairy,28.619772,77.017944
208,DC3565,Arjun Park,28.618,77.012067
209,DC0078,Alaknanda Apartments,28.525582,77.253435
210,U02462,HaujRani / MaxHospital,28.5285,77.2119
211,U00484,Sukhbeer Nagar,28.727533,77.04895
212,DC0055,CV Raman ITI,28.72095,77.20015
213,U01196,Rajdhani College / Raja Garden,28.654783,77.125417
214,U01859,RK Puram Sec-1,28.5642,77.1785
215,U02523A,Shivaji Stadium Terminal,28.63275,77.215633
216,U01541,Maharana Pratap Chowk,28.588067,77.1509
217,U00262,Deenpur Village,28.5933,76.9918
218,U01546,Punjab Kesari (Subhash Palace Depot),28.696,77.1558
219,U02272,Gole Market,28.6352,77.2031
220,DC0117,Ali Village,28.516117,77.296567
221,DC3711,Qamruddin Nagar Terminal,28.682022,77.054099
222,U01080,Janak Setu,28.6104,77.1138
223,DC0011,Avantika Crossing,28.69875,77.0964
224,DC3757,Modern School  Vasant Vihar F Block,28.559967,77.157317
225,U00383,TilangPur Kotla,28.649406,77.027234
226,DC3857,Krishna Colony,28.746817,77.087767
227,U99879,Delhi University,28.688417,77.214833
228,U00979,Mangolpur Kalan Village,28.6956166666667,77.1011833333333
229,U01014,Mangolpuri School,28.69465,77.105367
230,U02789,Sheikh Sarai More,28.5328,77.2306
231,DC4543,C P J College,28.857652,77.095746
232,U00449,Dwarka Sec 13-3 Xing,28.602567,77.040983
233,U00592,Nangloi Metro Station,28.682006,77.064933
234,DC4520,Shri Krishna Gaushala,28.779314,77.021694
235,U01013,Meenakshi Garden,28.639983,77.10435
236,U01082,Swarg Ashram,28.631,77.1149
237,U00982,Rithala Village,28.717233,77.1014
238,U03046,Garhi Gaon,28.5621,77.2512
239,U00767,CRPF Camp,28.645917,77.084483
240,U03029,Nehru Place,28.5486,77.2492
241,NS0257,Thimiyan Park,28.60265,77.133483
242,U03790,Shalimar Garden Crossing,28.6885,77.3303
243,DC4314,Dichau Chowk,28.616915,76.983843
244,U02237,Meghdoot Bhawan,28.644,77.200983
245,U03640,Yojana Vihar,28.65965,77.315183
246,U01331,Pittam Pura R U-Block,28.7111,77.1371
247,DC102,Tagore Garden D Block,28.652783,77.111967
248,U03521,Prince Apartment,28.63095,77.3008
249,DC3734,Pusta No 5 Sonia Vihar,28.734583,77.246633
250,U02193,Burari Village,28.754,77.1988
251,U03277,Holy Family Hospital,28.561083,77.275417
252,DC4122,Laxmi Narayan Temple,28.632285,77.199257
253,DC4022,Jhuljhuli Crossing,28.531783,76.9071
254,U02606,Novelty Cinema,28.6614,77.2211
255,U03433,Dharma Apartment,28.620183,77.2903
256,DC4082,Vivek Vihar Terminal,28.667933,77.3145
257,U00190,Nazafgarh Dhansa More,28.612021,76.978565
258,U00389,Kakrola More,28.618905,77.029949
259,U01582,GTK Depot,28.731183,77.158617
260,U03587,Hasanpur Depot,28.635993,77.306815
261,DC3917,Loha Mandi,28.640183,77.1455
262,DC4251,Teen Murti,28.605717,77.199067
263,U00692,M Block Vikaspuri,28.6386,77.078
264,U02702,Ambedkar Nagar Terminal,28.515951,77.225536
265,U02841,Delite Cinema,28.6412,77.2352
266,U03204,Ishwar Nagar,28.5616,77.266217
267,U99643,Kirari Lal Mandir,28.698,77.055467
268,DC3939,Shivani Apartments/ Kunj Vihar Sector-12 Dwarka,28.594117,77.035617
269,DC4059,Babarpur Extension,28.690727,77.278602
270,U03175,Tughalqabad Village,28.509067,77.265117
271,U03185,Govind Puri Metro Station,28.545217,77.2641
272,U02424,Bhavishya Nidhi Enclave,28.5422,77.2097
273,U00226,PS Najafgarh,28.6096,76.9827
274,U00813,Dabri Crossing (Pankha Road),28.613374,77.087756
275,U02830,Patiala House,28.6164,77.2339
276,U00906,Desu Colony Janak Puri,28.609871,77.095047
277,DC4537,Old Anaj Mandi,28.845696,77.088817
278,U02543,Palika Kendra,28.628567,77.216783
279,U99892A,Garrison Engg.,28.6053666666667,77.1474333333333
280,DC0005,Rohini West Metro Station,28.715,77.115
281,DC4391,PS Ranhola,28.65355,77.035417
282,DC4145,IGI Airport Terminal 2 (Air India Office),28.557092,77.091787
283,U00662,Gurudwara Vikaspuri,28.6385,77.0743
284,DC4497,CRPF Jharoda,28.638831,76.960643
285,U01814,B2 Block Ashok Vihar Ph II,28.693274,77.177899
286,DC4474,Mundhela Khurd School,28.616066,76.896431
287,U00716,Jwala Puri / Nangloi Depot,28.681417,77.0791
288,DC3976,Seelampur Market,28.673567,77.269983
289,U01939,Bhartiya Sadhu Samaj,28.6038,77.184
290,U03598,GTB Hospital Xing,28.6893,77.3077
291,U02673,Swami Nagar,28.5423,77.2248
292,U00566,Madhu Vihar,28.599883,77.0614
293,DC0129,East Vinod Nagar Depot,28.6219,77.300783
294,U02452,Kalawati Hospital,28.6381,77.2108
295,U01043,Rohini Depot - 3,28.6952,77.1094
296,DC3694,Bharat Nagar,28.566738,77.269676
297,U02862,Red Fort,28.6577,77.2371
298,U00267,Goela Dairy Crossing,28.591193,76.993282
299,U00344,BSF Campus Chhawla,28.547717,77.009283
300,U00680,Janakpuri C-1,28.6182,77.077017
301,U02783,J L Nehru Stadium,28.5841,77.2301
302,U02418,Gurudwara Bangla Sahib,28.625333,77.209333
303,U00867,GSKV School No-1 B-Block,28.6247,77.0922
304,U00002,Dhansa Border,28.562483,76.842883
305,DC4168,CGHS Dispensary,28.644633,77.209433
306,U01720,Shalimar Bagh(Ring Road),28.7037333333333,77.1690166666667
307,DC4560,JJ Colony Bawana Crpf Camp,28.806836,77.04801
308,U03010,Indira Gandhi Stadium,28.6328,77.2472
309,DC3920,Sainik Enclave/Vikas Nagar Nala Road,28.635083,77.025383
310,U00870,C-3 Janakpuri,28.615417,77.092583
311,U01332,Rang Puri Pahari,28.5379,77.1369
312,U02533,Saket Crossing,28.5179,77.216283
313,U00272,Ghevra Crossing (Kanjhawala Road),28.685717,76.994533
314,U00343,BSF Campus Chhawla,28.5479,77.00915
315,DC3897,M Block Greater Kailash- II,28.534913,77.243555
316,U00444,Ranhola Village,28.6561,77.04065
317,U02661,Lodhi Colony 18-Block,28.586733,77.22425
318,U02199,Burari Transport Authority,28.730567,77.198467
319,U02366,Shri Ram College,28.6891,77.2068
320,U02506,Krishi Bhawan / Rail Bhawan Metro Station,28.614867,77.212383
321,DC3605,Swaroop Nagar JJ Colony (GT Road),28.7581333333333,77.1480833333333
322,DC4480,Bharthal Chowk (Bharthal Road),28.554056,77.050407
323,DC4039,East Vinod Nagar Depot,28.620079,77.30087
324,U02882,Vayu Sena Bad (Tigri),28.5129,77.2385
325,DC0048,Rithala Crossing,28.7116,77.1074
326,DC3651,CGO Complex,28.588083,77.233667
327,DC4434,Dichau Kalan School,28.642699,76.986388
328,U01754,IA Block Ashok Vihar,28.68605,77.1704333333333
329,U00291,Sai Baba Mandir (Nazafgarh),28.61375,76.99985
330,U01131,Rajouri Garden,28.648821,77.122615
331,U02426,Khalsa College,28.6947,77.2097
332,U02753,Modern School,28.6278,77.2285
333,U01068,Zunk Market,28.618117,77.112183
334,U00211,Tikri Piyau / Azad Hind Gram,28.686817,76.979933
335,U01178,Mahipal Pur Crossing,28.548083,77.125267
336,U04003A,Nehru Place Terminal,28.548512,77.257157
337,U01269,Basai Darapur / Ramesh Nagar,28.653,77.1323
338,DC4308,DTC Apartments,28.697529,77.134098
339,U02339,Panchsheel Club (Sarv Priya Vihar),28.54345,77.207483
340,U03173,Kalkaji Mandir (MaaAnandmayeeMarg),28.547767,77.262833
341,U02123,Talkatora Stadium Garden,28.621667,77.194533
342,U99854A,Okhla Extension (Abul Fazl Encalve),28.5469,77.3066
343,U03181,Kalkaji Mandir,28.55205,77.2645
344,U03043,Rajghat Gandhi Darshan,28.6389,77.2502
345,DC3528,Kair Depot,28.618117,76.930783
346,U00646A,Nangloi JJ Colony,28.682267,77.059767
347,U03013,Raj Ghat,28.6417,77.2471
348,DC3840,Raja Puri,28.60428,77.05483
349,DC4377,Kotla Vihar Phase I,28.65105,77.0302
350,U03683,Maharaj Pur Check Post,28.643267,77.316583
351,U02941,Gupta Market,28.564833,77.241433
352,DC3771,Badli Telephone Exchange,28.74485,77.13265
353,U00751,Prehladpur Village,28.7512,77.080967
354,NS0313,Hansraj College,28.679067,77.208183
355,DC3628,Dwarka Sec 13-3 Xing,28.602717,77.04115
356,DC4457,Pandwala Khurd,28.562304,76.967114
357,DC4065,Bharti Public College,28.62235,77.09365
358,U02823,Jaipur House,28.6089,77.2333
359,DC4016,Dauralla Village,28.510833,76.895533
360,U03272,Yamuna Vihar Brijpuri,28.702633,77.2737
361,U99966,Power House,28.5058,77.3008
362,U02799,Chirag Delhi,28.540967,77.232083
363,U00478,Maharishi Valmiki Hospital / Pooth Khurd,28.775033,77.047683
364,U02400,Police Station Paharganj,28.646001,77.208094
365,DC3754,Gole Market (Bhai Veer Singh Marg),28.63225,77.205467
366,U03336,Jamiya Millia College,28.56115,77.280117
367,U00535,Prem Nagar,28.621961,77.05731
368,NS0256,Thimiyan Park,28.602817,77.133517
369,U03349,Shahdara (Shyam Lal College),28.67307,77.282696
370,DC4228,Surya Nagar,28.66785,77.32135
371,U01490,Inderpuri A-Block,28.6287,77.1511
372,U01557,Ram Pura (Ashok Park),28.6714,77.157083
373,U03675,NHW-24 Xing (Gazipur Xing),28.630333,77.316283
374,U00491,Kiran Garden,28.62081,77.048338
375,U02048,T B Hospital,28.5283,77.1897
376,U01402,Shakurpur Shiv Mandir,28.680921,77.142863
377,U02591,Prithviraj Road Crossing,28.59745,77.220083
378,U03429,Shahdara Railway Bridge,28.6749,77.2898
379,U02853,Masjid Moth,28.54085,77.236067
380,U01826,Bapu Dham,28.5994,77.1758
382,U99808,Madan Pur Dabas,28.715933,77.027883
383,U01749,RK Puram Sec-9,28.5713,77.1707
384,U03056,C R Park Market 2,28.537903,77.252411
385,U01375,New Moti Bagh B Block,28.66365,77.140683
386,DC4245,Tyag Raj Marg,28.6091,77.202983
387,U02878,Delhi Gate (JLN Marg),28.6400333333333,77.2380333333333
388,DC4291,Shakur Pur JJ Colony/ Britannia,28.684313,77.14563
389,U02244,PNB Geetanjali,28.529313,77.2013
390,DC0031,Wazirpur Depot Road No 41 (Subhash Place Market),28.6937,77.1512
391,DC4331,Nehru Bus Stand Goyla Dairy,28.580514,77.019268
392,DC3668,RK Puram Sec-10,28.5702,77.173167
393,U01071A,Shiv Murti,28.536033,77.1119
394,U02514,Shivaji Stadium Terminal,28.633083,77.21545
395,U99646,Bawana,28.800011,77.035613
396,U03556,Badarpur Border,28.4927,77.303817
397,DC3794,Tahir Pur,28.691367,77.324967
398,U03673,Sunder Nagri,28.6928,77.3162
399,U02820,Turkman Gate / G B Pant Hosipatal,28.6417,77.2333
400,U01926,Bara Bagh,28.7017,77.1828
401,U03478,Meet Nagar,28.70025,77.297667
402,U01398,ISIC Hospital (Verma farm),28.53395,77.1427
403,U01539,C-4 Keshav Puram,28.6904,77.154983
404,U01957,Bharat Nagar Xing,28.6809,77.1846
405,U02699,Old Delhi Railway Station (Fatehpuri),28.660295,77.224901
406,U00012,AIR Force Camp,28.5633,76.8719
407,DC4417,Ghuman Hera School,28.537022,76.922455
408,U03213,DDA Kalkaji Extn,28.526817,77.2669
409,U00445,Harijan Basti,28.707367,77.040317
410,U01549,Shadipur Colony,28.6516,77.1561
411,U03610,Vijaya Laxmi Apartment,28.6289,77.309017
412,DC4268,Radhu Palace,28.636483,77.285567
413,DC3731,Gatta Factory Sonia Vihar,28.730183,77.24575
414,U01098,Rohini Sec-9 /7,28.7138,77.1172
415,U99986,Vikaspuri Xing,28.6276,77.0697
416,U00683,Pooth Kalan,28.71425,77.0770666666667
417,U00401,Karala Crossing,28.731617,77.03235
418,DC4486,Baba Haridass Nagar,28.623725,76.970389
419,U00538,Prem Nagar,28.62211,77.056846
420,U03528,Saraswati Kunj,28.6239,77.3012
421,U00021,Bakkar Garh Xing,28.591717,76.885917
422,U02586,INMAS,28.703583,77.219917
423,U03149,ISBT Sarai Kale Khan,28.588832,77.258796
424,U01990,Hyatt Hotel,28.5702,77.1857
425,U00425,Rama Park,28.619965,77.036719
426,U01945,Subhadra Colony,28.671105,77.184219
427,U03621,Hassanpur Village,28.6363,77.3103
428,U03000,Nizamuddin Extension,28.589233,77.2463
429,U03084,Guru Ravi Das Ashram / Tughlaqabad Extension,28.51945,77.254483
430,U02888,Vayu Sena Bad (Tigri),28.5129,77.2389
431,U01030SB,Shahbad School,28.7456833333333,77.10735
432,U02639,Lodhi Colony,28.591683,77.2235
433,U01162,Metal Forging,28.6298,77.1233
434,U00808,Kapashera Crossing,28.5313,77.08815
435,U01765,Officer Enclave S.P Marg,28.597,77.1713
436,U01363,Pittampura BU-Block,28.7164,77.1396
437,U00685,C1 Janak Puri,28.6178,77.0771
438,U00910,B Block Mangol Puri,28.689117,77.09555
439,U01139,Rohini Sec-16 Xing,28.7437,77.1216
440,U03637,Chand Cinema,28.612983,77.3125
441,DC4340,Police Post,28.577292,77.035195
442,U00996,St. Xavier School Shahbad,28.7456,77.103
443,DC0066,Sunehari Pulla Depot / Jawahar Lal Nehru Stadium Terminal,28.59155,77.233117
444,U01220,Raja Garden,28.650783,77.1262
445,U01880,Bharat Nagar,28.6806,77.1799
446,U03100,Shastri Park,28.6729,77.2553
447,U01006,Pal Colony,28.7235,77.1036
448,DC4194,Dwarka Sec-6/7,28.59012,77.068955
449,DC4440,Dichau Chowk,28.617384,76.983711
450,ST2148,Mori Gate Terminal,28.665873,77.222024
451,U00273,FCI Ghevra,28.692392,76.9942
452,U02319,Bara Hindu Rao,28.6608666666667,77.20415
453,U01386,Samrat Enclave,28.68525,77.14105
454,DC3883,Dhool Siras,28.552849,77.035179
455,DC3577,Shastri Park,28.673083,77.25405
456,U00441,Ranhola II,28.654476,77.038017
457,U01729,South Patel Nagar (Metro Station),28.6454,77.1689
458,U01648,Vasant Lok,28.56035,77.164417
459,U02407,Maidan Garhi Crossing (SDM Court),28.519067,77.2088
460,U02999,Sant Nagar,28.552367,77.246167
461,DC3677,Mangol Puri J Block,28.697888,77.083427
462,U00871,PS Mangol Puri,28.6965,77.091882
464,U01930,New Rajinder Nagar Post Office,28.636825,77.182967
465,DC3783,Mangol Puri Y Block,28.70275,77.0881
466,NS0454,Doulat Ram College,28.6882,77.2063
467,U00560,Kirari Gaon,28.693676,77.060986
468,U03732,Shahdara Border,28.6775,77.323
469,DC4363,Keshav Nagar Mukti Ashram,28.779129,77.179635
470,DC4463,Okhla Village (Temporary),28.562333,77.29185
471,DC4071,Faiz Road,28.648227,77.198819
472,U01385,APS Colony/ Jharera Gaon,28.579433,77.145
473,U01845,Railway Colony (Sardar Paltel Marg),28.600683,77.17805
474,U02072,11 Murti,28.61105,77.1907
475,DC3988,Chhajupur,28.6894,77.287
476,DC3965,Kapashera Village Bijwasan Road,28.52773,77.076142
477,DC3591,Zero Pusta,28.6778,77.256783
478,U03396,Shahdara Terminal,28.674286,77.287117
479,U01248,Madhuban Chowk Outer Ring Road,28.703,77.1298
480,U01393,Kohat Enclave Metro Station,28.6974166666667,77.1421
481,U01330,Punjabi Bagh Terminal,28.66735,77.137317
482,U01782,R K Puram Sec-7,28.5706,77.1727
483,DC3760,Surya Niketan,28.655733,77.310317
484,DC0014,Railway Road Bridge,28.609851,77.251781
485,U02902,Darya Ganj,28.644033,77.24035
486,DC3654,Exchange Store / Civil Lines Metro Station,28.676783,77.224833
487,U02571,Mall Road,28.693617,77.2184
488,DC0136,CRPF Camp / Crown Plaza,28.527867,77.272383
489,U02207,Faiz Road,28.648267,77.199017
490,DC3906,C Block Mangol Puri,28.692367,77.0906
491,U00300,Hiran Kudna Crossing,28.684683,77.000967
492,DC3948,Rani Bagh Railway Colony,28.6839,77.12795
493,U01520,Pandav Nagar,28.650051,77.153678
494,U02785,ISBT Kashmere Gate,28.666756,77.229348
495,U00349,Dariyapur Gaon,28.812783,77.00915
496,U01804,East Patel Nagar,28.6404,77.1742
497,U02455,PS Tughlaq Road,28.599883,77.2112
498,U99926A,Telephone Exchange Karol Bagh,28.64315,77.181917
499,DC4423,KharKhari Rondh,28.56176,76.941887
500,U00453,Mohan Garden,28.620385,77.040795
501,U03760,Mayur vihar Phase-III Crossing,28.601583,77.326033
502,DC4572,Chandpur Xing,28.75134,77.014497
503,DC4380,Chanchal Park,28.646333,77.021767
504,U02345,Gurudwara Rakab Ganj,28.6185,77.206
505,U02417,Kidwai Nagar,28.5735,77.2095
506,DC4403,Nangloi,28.681483,77.06735
507,U02924,Sunder Nagar,28.605117,77.24045
508,U01019,Lajwanti Garden,28.614,77.1062
509,U01017,Visram Chowk,28.70915,77.1055833333333
510,DC0037,Dera Satguru Sewaram Sahai Sec 24/25,28.7297,77.094967
511,U01424,Moti Nagar,28.658615,77.144108
512,DC3737,Check Post,28.739367,77.24745
513,DC3928,Nanak Piyau / DTC Colony,28.69105,77.1927833333333
514,U02741,Central School Lodhi Colony,28.5848,77.22815
515,U03738,Fire Station,28.605067,77.322683
516,U00526,Rajapuri,28.6738,77.0551
517,DC0089,Raghubir Nagar N Block,28.6593666666667,77.11245
518,U02717,Ambedkar Nagar Terminal,28.515935,77.226604
519,DC4317,Chand Nagar,28.645206,77.099338
520,U01291,Pitampura JD Block,28.70185,77.13455
521,U99608,Rajeev Nagar,28.724983,77.058433
522,U00424,Dwarka Sec 13,28.605567,77.036383
523,DC4154,Sarojini Nagar Depot,28.573304,77.190001
524,U02998,Nizamuddin Extension,28.589633,77.2463
525,U02672,Mori Gate Terminal,28.667,77.2247
526,U01692,Pusa Quarters,28.630033,77.166983
527,U01251,Madhuvan Chowk,28.7046,77.13
528,U01777,R. K. Puram Sec-12,28.5757,77.1724
529,DC4131,Le Meridian Hotel,28.619333,77.2176
530,DC4108,RK Khanna Tennis Stadium,28.558333,77.187283
531,U03317,Shakarpur School Block,28.627433,77.279283
532,DC3843,Air Force Officers Flats Dhaula Kuan,28.600967,77.167867
533,U02136,Shakti Nagar Nangia Park,28.68035,77.196233
534,U00774,Major Bhupinder Singh Nagar,28.6469,77.0848
535,DC4446,Daulat Pur Crossing,28.543634,76.970812
536,U01561,Ram Pura (Ashok Park),28.67148,77.157173
537,U01502,Subroto Park (Arjun Path),28.574317,77.151517
538,U01628,Dhaula Kuan,28.60005,77.162017
539,U01994,Qutab Minar,28.5264,77.1861
540,U02290,Padhmini Enclave,28.5498,77.2038
541,DC4592,Majnu Ka Teela Ring Road,28.69765,77.22741
542,U02538,Gandhi Vihar,28.7223,77.2165
543,U01857,Andheria More / Chhatarpur Metro Station,28.509217,77.178967
544,U00233,Najafgarh Delhi Gate,28.6118,76.9856
545,DC4569,Shri Krishna Gaushala,28.779613,77.022005
546,U02647,Ajmeri Gate / Kamla Market,28.6448,77.223733
547,DC4234,ESI Hospital,28.66605,77.310783
548,DC3697,H-3 Vikas Puri,28.645922,77.079312
549,U01085,Ordinance Depot,28.6768,77.1148
550,DC3720,Gurudwara Bangla Sahib,28.628133,77.2094
552,U02732,Defence Colony (Homyopathic College),28.571983,77.227667
553,DC0086,Saiyyad Nagar Dilshad Garden,28.682567,77.33155
554,U01955,Gujranwala Town,28.6996,77.1845
555,DC3820,Sarita Vihar D Block / Madanpur Khadar Village,28.532267,77.296383
556,DC3640,Palam More,28.568033,77.130033
557,U03150,DDA Market Kalkaji,28.530617,77.258533
558,U01681,Jahangirpuri B Block,28.7293,77.1662
559,U03186,Maharani Bagh / Ashram,28.576633,77.26445
560,U00847,Q-Block Mangolpuri,28.6877,77.0913
561,U99985A,Tagore Garden Gurudwara / Holy Child School,28.650417,77.113733
562,U01716,ARSD College (Dhaula Kuan),28.590383,77.168467
563,U00956,Desu Colony,28.6111,77.0989
564,U00955,Fateh Nagar,28.6312,77.09885
565,U02944,ITO,28.6291,77.241517
566,DC4343,Amrohi More,28.574817,77.0513
567,U01024,Mangolpur Police Lines,28.6945,77.1066
568,U03131,DDA Market Kalkaji,28.529982,77.258506
569,DC3943,Sapera Basti Crossing,28.6181,77.336267
570,U01217,Government Press,28.634617,77.127633
571,U03066,Nizamuddin Railway Station,28.586433,77.25305
572,DC3869,Narain DharamKanta,28.670618,77.057884
573,U01829,Anand Parbat Industrial Area,28.6648,77.1754
575,U03294,Okhla Phase 1,28.520517,77.277267
576,U03258,Bharat Nagar Crossing,28.5622,77.2723
577,U02145,Talkatora Stadium,28.6263,77.1965
578,U02388,Malka Ganj Terminal,28.677583,77.2078
579,U02536,Sadhna Enclave,28.542983,77.216433
580,U03431,P S Pandav Nagar,28.6147,77.2903
581,DC0133,Khichdipur,28.624633,77.3095
582,U99828A,Samalka Crossing,28.53795,77.09365
583,U02044,Bhikaji Cama Place,28.568,77.1896
584,DC3806,Satyawati College,28.695345,77.179374
585,U02962,ITO,28.628183,77.24515
586,U03631,GTB Hospital,28.6843,77.311
587,U00991,West Enclave,28.6936,77.1023
588,U02021,Dev Nagar,28.6564,77.1881
589,U03809,Mayur Vihar Phase III A1 Block,28.608717,77.33715
590,U02323,Kendriya Terminal / Gurudwara Rakab Gunj,28.6212,77.2053
591,U02844,Bapa Nagar,28.6057,77.2351
592,U03094,Tara Apartments Terminal,28.523828,77.255068
593,DC4546,Sec A-9 and A-6 Narela,28.851771,77.097849
594,U02930,CGO Complex,28.587033,77.2408
595,U00289,Ghevra Village,28.696417,76.997967
596,U00875,Janak Puri B-3,28.622917,77.09275
597,U00522,ShivRam Park,28.667651,77.055346
598,U00919,Peera Garhi Chowk,28.679533,77.09575
599,DC3743,Chauhan Patti (Terminal),28.754859,77.243323
600,U03041LN,Lajpat Nagar Crossing,28.5643,77.2501
601,U01116,Tagore Garden,28.644217,77.1133
602,DC3594,Shastri Park DMRC Depot,28.674167,77.243433
603,U02548,Nirman Bhawan,28.61035,77.217217
604,U00729,District Centre Outer Ring Road,28.6327,77.0811
605,U03451,Radheypuri,28.655,77.2919
606,DC3680,Gazi Pur DDA Flats,28.6229,77.319767
607,DC3531,Kair Depot,28.618288,76.930672
608,U01042,Lajwanti Garden,28.6129,77.1096
609,DC4068,Janki Devi College,28.641629,77.1898
610,U03728,Surya Nagar,28.6668,77.3217
611,U02553,Prithvi Raj Road Crossing,28.5965,77.2174
612,DC4217,Shalimar Bagh BA Block,28.708633,77.161828
613,U03376,East Azad Nagar,28.666617,77.2832
614,U03644,Dilshad Garden School,28.6808,77.3136
615,U02738,JLN Marg,28.6421,77.22785
616,U03054,Rojdoot Hotel,28.5827,77.2525
617,U01801,South Moti Bagh,28.5778,77.1742
618,U01838,Jahangir Puri Outer Ring Road,28.73425,77.17645
619,U01744,Daya Basti Flyover,28.666346,77.169943
621,U03097,Gamri Extn Pusta No.5,28.6957,77.2551
622,U01542,Shadipur Depot,28.6536,77.1553
623,U01452,Badli Xing,28.7284,77.1463
624,U01512,Mukraba Chowk,28.7323,77.1521
625,U99882A,Jahangirpuri GT Road (Metro Station),28.7257,77.163
626,U01555,Todapur Village,28.624,77.1565
627,U02117,DB Gupta Market,28.651809,77.19481
629,DC3657,Ram Jas Road,28.658993,77.191289
630,DC0069,Khayala More/ Subhash Nagar Crossing,28.642984,77.10738
631,DC3903,PS Bawana,28.8065666666667,77.023
632,U02616,Delhi Vidhan Sabha,28.6878,77.2214
633,U02435,Kidwai Nagar (INA Colony),28.5761,77.2099
634,U01143,Rajouri Garden,28.648433,77.120783
635,U02480,SJ Madrasa,28.586683,77.212767
636,U03769,Mayur vihar Phase-III Crossing,28.6017,77.32755
637,U03435,Surajkund Crossing,28.5017,77.291
638,DC4214,Shalimar Bagh BH Block,28.715233,77.156869
639,U02618,Vigyan Bhawan,28.610033,77.221967
640,U01481,R R Line,28.596167,77.1504
641,U00832,Mangolpuri Y Block,28.702717,77.089517
642,U02877,Golf Club / Sunder Nagar,28.601367,77.237883
643,U03588,Balco Apartment,28.6299,77.3067
644,DC3925,C-1 Keshav Puram,28.683117,77.1545
645,U00015,Qadipur,28.5782,76.8798
646,DC4420,Ghuman Hera School,28.537115,76.922376
647,U03482,New Rajdhani Enclave,28.642483,77.29635
648,U01812,Daya Basti,28.6649,77.1747
649,U02634,Super Bazar,28.632583,77.22305
650,U02036,Chowki No 2 / Gulabi Bagh Crossing,28.6769833333333,77.1889
651,U03015,IP Power Station / ITO Ring Road,28.624517,77.247117
652,DC4114,Geeta Colony Block 5,28.653174,77.271397
653,DC0034,Power House Rohini Sec 24,28.727167,77.080283
654,U00511,Qamruddin Nagar Terminal,28.682183,77.054367
655,U00312,Kanjhawala Depot (Narela Road),28.727519,77.002541
656,DC3634,IOL,28.57535,77.116967
657,DC3534,Tilak Nagar,28.63545,77.09295
658,U99782,East Vinod Nagar Depot,28.6227,77.3039
659,U00734,Krishna Park,28.6392,77.0817
660,U00025,Mata DanKaur Public School,28.597584,76.899172
661,U03718,Gazipur Dairy Farm,28.6203,77.3208
662,U99791,Shaheed Bhagat Singh Nagar,28.724891,77.029213
663,DC4320,Chaukhandi,28.64706,77.09563
664,WPD,Wazirpur Depot / Subhash Place Depot,28.694867,77.15485
665,U02041,Bhikaji Cama Place,28.568,77.1893
666,U00447,Harijan Basti,28.707417,77.040383
667,U02856,Red Fort,28.6541,77.236433
668,DC4297,Mahindra Park Road No-44,28.684023,77.135913
669,DC4128,Geeta Colony Block 5,28.653217,77.271333
670,U03432,Dharma Apartment,28.6199,77.29005
671,U99751,Ranhola Extension,28.6584,77.04395
672,DC4274,Ramleela Ground Geeta Colony,28.654483,77.274867
673,DC4506,Surehra Village,28.59870792487,76.9364446428843
674,U03036,Hamdard Nagar / Sangam Vihar,28.511967,77.249783
675,U00640,Dwarka Sec-1 Mahalaxmi Apartment,28.5961,77.0719
676,U01389,Moti Nagar Market,28.657233,77.14125
677,DC4529,JJ Colony Bawana Road,28.806709,77.047729
678,U02023,Gulabi Bagh,28.674998,77.188525
679,U00555,Uttam Nagar,28.622733,77.060223
680,U03125,Shastri Park,28.6723,77.2571
681,U02635,Balak Ram Hospital,28.7049,77.2231
682,U01135,Deepali Chowk,28.6980166666667,77.1195
683,U02466,Rail Bhawan Metro Station / Krishi Bhawan,28.61495,77.212067
684,DC4337,Qutub Vihar Phase-I Kikar Stand,28.5784,77.029767
685,DC4443,Shikar Pur Crossing,28.545597,76.965275
686,DC0103,Ram Vihar,28.657733,77.310467
687,U01931,IIT Hostel,28.5497,77.18555
688,U03471,Maruti Factory,28.5187,77.2952
689,DC4383,Baprola Village,28.640967,77.011733
690,DC4051,C4 Yamuna Vihar Crossing,28.70065,77.283667
691,U00643JC,Jain Colony,28.75375,77.0728
692,U02216,Burari Village,28.7541,77.199
693,U01576,Prem Bari Pul,28.6999,77.1583
694,U00807,C2D Janakpuri,28.61446,77.086985
695,DC4191,R K Puram Sec 9,28.574718,77.168577
696,U00803,Hanuman Mandir Rohini Sec 24,28.722883,77.087733
697,U99882,Jahangirpuri GT Road,28.725467,77.162833
698,U01213,Kibri Place,28.6044,77.1273
699,DC4489,PTS Jharoda Kalan,28.64293,76.958068
700,U03088,Gamri Ext / Pusta 5,28.695467,77.254783
701,U01852,RK Puram Sec 1,28.563,77.1783
702,DC3886,Pochan Pur Village,28.558449,77.043126
703,U03712,Ram Prastha Crossing,28.6608,77.3202
704,U03113,Desh Bandhu College,28.541258,77.255656
705,U02858,Red Fort,28.65405,77.23645
706,U01760,Janak Vihar,28.6314,77.1711
707,DC3909,Hari Nagar (Mohan Mandir) Mayapuri,28.630683,77.124267
708,U01827,Rajender Nagar,28.641,77.1759
709,DC3674,Mangolpuri K Block (Sanjay Gandhi Hospital),28.694728,77.081911
710,U02171,Dhaula Peer,28.52255,77.19315
711,DC3717,GTB Nagar / Haqiqat Nagar,28.698158,77.207636
712,U02387,Ice Factory (Roshanara Road),28.66745,77.20765
713,U00527,Bharthal Under Pass,28.5477,77.0568
714,U00610,C Block Vikaspuri,28.633233,77.06885
715,DC3968,Kapashera Village Bijwasan Road,28.527567,77.076117
716,U01390,Samaypur School,28.744211,77.143076
717,U01693,Bhalaswa Xing,28.7371666666667,77.1682
718,U02253,IIT Gate (Aurobindo Marg),28.54585,77.201967
719,U01996,Telephone Exchange,28.6975,77.1862
720,U03436,Okhla Village,28.563423,77.291309
721,U99993,Jahangirpuri GT Road,28.7252,77.1634
722,DC4466,Mundhela Kalan School,28.60529,76.893629
723,U02707,PT College Kotla,28.5699,77.2263
724,U00656,Dwarka Sec 1,28.594283,77.073867
725,U02408,Panchsheel Club,28.544567,77.208833
726,U01168,Madipur Village,28.675967,77.123833
727,DC3780,CRPF Camp Okhla Phase 1,28.52855,77.270367
728,U01206,Raja Garden,28.6513,77.1266
729,DC0040,Rithala Village,28.725917,77.100106
730,DC0083,Jija Bai Udyogic Sansthan,28.555283,77.214017
731,DC4008,Samaspur Khalsa,28.578317,76.909933
732,DC4031,Mayur Vihar Phase II,28.620333,77.304833
733,DC3962,Bijwasan Railway Crossing,28.533133,77.055717
734,U00564,Kirari Gaon,28.693783,77.061067
735,U99795,Kanjhawala Chowk,28.7377,77.0077
736,DC108,Nai Basti,28.5616,77.2945
737,DC0017,Vidhan Sabha Metro Station,28.6877833333333,77.2214333333333
738,DC3985,Hardev Puri,28.689533,77.29595
739,U02360,GTB Nagar,28.69835,77.2057
740,U00317,Kanjhawala Haryana Shakti C-School,28.713983,77.003267
741,U02026,R K Puram Sec-2,28.5616,77.1885
742,DC4254,Sena Bhawan,28.60815,77.206667
743,U02795,ISBT Ring Road,28.671267,77.231183
744,U03622,GTB Hospital,28.6855,77.3104
745,DC4300,Road No-44 Crossing,28.686086,77.135974
746,U01834,Shastri Nagar E Block,28.671267,77.176283
747,U03057,Majeedia Hospital,28.515017,77.252617
748,U00988,West Enclave,28.6931,77.1017
749,U02626,Scindia House,28.6287,77.2219
750,U02929,Express Building,28.6339,77.2408
751,U03268,Seelam Pur Petrol Pump,28.672117,77.273467
752,DC4426,KharKhari Nahar,28.58704,76.959128
753,U99852,Unani Hospital / Okhla Ext Thokar 3,28.55898,77.296216
754,U02381,Yusuf Sarai,28.5627,77.2077
755,U02377,Yusuf Sarai,28.5626,77.2074
756,U02300,Jhandewalan,28.646833,77.204083
757,U00721,New Dwarka Road / Seetapuri,28.60955,77.08075
758,DC3597,New Sabzi Mandi,28.7143,77.172217
759,U03828,Mayur Vihar Phase III Crossing,28.615983,77.34145
760,DC3763,Sukhdev Vihar,28.558983,77.273067
761,DC3740,Sabhapur More,28.750167,77.24385
762,DC4400,Qamruddin Nagar,28.6744,77.060767
763,DC3889,DTC Rajghat Depot,28.640467,77.25775
764,DC4549,Kasturi Ram School,28.837258,77.098101
765,DC4526,Bawana Village,28.799966,77.035368
766,U99863,CWG Village / PWD Office,28.6036,77.2691
767,U03412,East Krishna Nagar,28.659883,77.28835
768,U03241,Welcome Colony,28.6711,77.2698
769,U01745,Vasant Kunj Sec-A Pkt-BC,28.51035,77.170483
770,U03719,Anand Gram,28.688783,77.321617
771,U03463,Shashi Garden Xing,28.6136,77.2937
772,U01021,Mangol Pur School,28.6948,77.106467
773,U02906,National Stadium,28.610497,77.24023
774,U99611,Radha Swami Satsang / Rupali Enclave,28.733933,77.020783
775,U01505,Guru Govind Singh College,28.698033,77.15165
776,U01476,ESI Dispensary,28.6605,77.1475
777,U03333,Jamiya Millia College,28.5609,77.2798
778,U01255,Rohini Sec 18 Bus Terminal,28.744967,77.130533
779,U02305,Kendriya Terminal,28.617483,77.203817
780,U03992A,Gupta Market,28.565133,77.239733
781,U02033,State Bank Colony,28.6954,77.1883
782,DC3660,Peeragarhi Chowk,28.67915,77.096067
783,U02083,Green Field School,28.56584,77.194365
784,U99868,New Delhi Railway Station Gate 2,28.6419497,77.22373542
785,DC4151,Aero City Metro Station,28.5484,77.12066
786,U00643,Jain Colony,28.7539,77.072883
787,U03345,Shakarpur,28.633517,77.282067
789,U03166,Govindpuri,28.538825,77.261639
790,U03679,Anand Vihar ISBT Terminal,28.645868,77.315375
791,U01666,Zakhira Flyover,28.66865,77.1654
792,U01763,E Block Jahangir Puri Terminal,28.7330833333333,77.17265
794,U00371,Mundka Main Rohtak Road School,28.683033,77.024517
795,U01805,South Moti Bagh (Ring Road),28.58195,77.174283
796,DC3700,H-3 Vikas Puri,28.646583,77.0794
797,DC4589,Raksha Vigyan Kendra / Metcalf House,28.68198,77.22901
798,U00677,Surajmal Stadium,28.681783,77.072983
799,DC4197,NHAI Building/ Dwarka Sec-10 Metro Station,28.578409,77.058932
800,U00595,Nangloi,28.681617,77.06725
801,U03287,MB Road,28.5058,77.276283
802,U02146,Dr. RML Hospital,28.6226,77.1966
803,U01440,Shakur Pur,28.684483,77.145283
804,U01458,Inder Puri (Krishi Kunj),28.6371,77.1468
805,U03498,ITI Khichiripur,28.613,77.2977
806,U03055,Delhi Secretariat,28.62795,77.25235
807,U02457,Patel Chowk,28.6244,77.2112
808,U00839,Meera Bagh Apartment,28.6572,77.0908
809,U03509,Mansarovar Park Metro Station,28.6759,77.2999
810,U00336,Baprola School,28.63845,77.00785
811,U02554,Claridges Hotel,28.602117,77.21765
813,U01938,Amrit Vihar,28.7643,77.1838
814,U00770,Major Bhupinder Singh Marg,28.64735,77.084783
815,U01791,Munirka DDA Flats,28.555433,77.17635
816,DC4237,Satyam Enclave / Jhilmil DDA Flats,28.666733,77.30465
817,U02703,Ajmeri Gate / Kamla Market,28.6440833333333,77.22405
818,U99952,Jor Bagh,28.585683,77.2168
819,U02620,Vidhan Sabha Metro Station,28.68775,77.22165
820,DC3574,Tilak Nagar / Sant Pura,28.638917,77.100467
821,U02495SB,Krishi Bhawan,28.6169,77.213617
822,U01321,Naraina Village,28.6186,77.1362
823,DC4503,Sainik Enclave Jharoda,28.634639,76.963163
824,U00959,Avantika Sec-2,28.7019333333333,77.0991
825,DC3723,Sant Nagar Main Market,28.741983,77.1978
826,U03286,Laxmi Nagar Metro Station,28.630967,77.277767
827,DC4566,Ishwar Colony,28.794709,77.030052
828,DC4025,Ujwa Gaon,28.568783,76.9067
829,U03814,Mayur Vihar Phase III A1 Block,28.608467,77.33735
831,U00742,Krishna Park,28.6391,77.0819
832,DC4555,Bharat Mata School,28.833074,77.076871
833,NS0375,DDA Flats Kalkaji,28.5254,77.2568
834,DC4532,Sanoth Xing / Ghogha Xing,28.819907,77.06374
835,U01209,Rajouri Garden Market,28.6453,77.1268
836,DC0046,Rohini Sec 22/24 Crossing,28.720656,77.069805
837,NS0505,Dwarka Sec 3/4,28.602367,77.042683
838,DC4701,S Block Greater Kailash- II,28.52922,77.245027
839,DC4578,Malik Pur Village Crossing,28.552333,76.907483
840,DC4432,Khera Village,28.596312,76.964794
841,U02870,Savitri Cinema,28.54175,77.23855
842,U99712,Rajghat Gandhi Darshan,28.639,77.2513
843,DC4386,Jai Vihar,28.6316,77.000483
844,U03996A,Jaitpur Mor,28.497367,77.302117
845,U02750,Metcalfe House,28.6807,77.2281
847,U02090,DDA Flats Lado Sarai,28.529833,77.192117
848,U01923,R K Puram Sec-3,28.55877,77.18227
849,U03158,Tughlaqabad Extn,28.5255,77.2607
850,U02711,Kasturba Gandhi Crossing,28.6234,77.2266
851,DC4240,Vivekanand Mahila College,28.665467,77.314517
852,U99679Z,Tehkhand Depot DTC,28.510917,77.281167
853,U01807,Sabji Mandi Azadpur,28.7143666666667,77.1722
854,U02649,New Delhi Railway Station Gate 2,28.64192836,77.22374256
855,U02393,Patel Chest,28.691304,77.208108
856,U02401,Hansraj College,28.6793,77.2084
857,U02979,Vijay Ghat,28.6578,77.2448
858,U00802,Keshopur Depot,28.6525,77.0876
859,U01395,ISIC Hospital (Verma farm),28.533917,77.142483
860,U01588,GTK Depot,28.731117,77.158967
861,U01065,Shahbad Daulatpur Gaon,28.745183,77.1121
862,U00499,Sultan Pur Crossing / Poothkhurd,28.767917,77.049267
863,U03461,Jagatpuri  A Block,28.651833,77.293083
864,U02807,Old Delhi Railway Station,28.6579,77.2319
865,U01275,NHW 8,28.569183,77.1326
866,U02851,LNJP Hospital,28.6401,77.234817
867,U02311,Jhandewalan,28.6471,77.2039
868,DC4163,Deep Market Ashok Vihar,28.693867,77.173
869,DC3769,Prem Nagar,28.742742,77.146403
870,DC3646,Dwarka Sec 1 Road No. 201,28.5945,77.073517
871,U99956,Lajpat Nagar,28.566667,77.24635
872,DC3937,Bodhik Sampda Bhawan,28.598033,77.025967
873,U02076,Gurudwara Nanak Pyau,28.6908,77.1918
874,U01359,Pittampura AP-Block,28.7034,77.1395
875,DC4455,Pandwala Crossing,28.558136,76.973881
876,U02430,Krishan Menon Marg,28.6069,77.2098
877,U03513,NTPC,28.5074,77.3002
878,DC4263,Shivpuri Colony,28.651867,77.2781
879,U01028,DA Block Hari Nagar,28.6249166666667,77.10705
880,U01640,Zakhira,28.668,77.164283
881,DC3875,Ranhola II,28.654767,77.037983
882,U02472,Indra Vihar,28.70608,77.21208
883,DC3971,Haryana Pottries,28.538183,77.0352
884,U01697,Inderlok,28.6714,77.1672
885,U00858,Sunder Vihar,28.6635,77.0918
886,DC4011,Ujwa Gaon,28.568767,76.906767
887,U03151,Ashram Chowk,28.571617,77.259167
888,U02681,Mori Gate Terminal,28.666517,77.225883
889,U03754,J  and  K Pocket Dilshad Garden,28.6797,77.3247
890,DC4226,Suraj Mal Vihar,28.661333,77.303717
891,U02364,Panchkuian Road,28.6402,77.2067
892,U03649,Nand Nagari E-Block,28.693817,77.3139
893,U02359,NDPO,28.6235,77.2065
894,U00324,Kanjhawala Village,28.734026,77.004905
895,U00652,Dwarka Crossing/ Dwarka Sec 1,28.594483,77.073583
896,DC4203,Delhi Sachivalaya (Raj Ghat Power House),28.637717,77.252683
897,U02584,Indian Oil Bhawan,28.6286,77.2193
898,U00380,Mundka School,28.682717,77.023883
899,U02028,Karol Bagh Metro Station,28.643911,77.188747
900,U99773,Mundhela Crossing,28.59765,76.895133
901,DC4034,Lal Bahadur Shashtri Hospital,28.617317,77.3098
902,DC4157,Chanakya Bhawan,28.58385,77.192083
903,U00461,DSIDC Bawana/ Dhakewala,28.780733,77.043767
904,U03343,Jharkhandi,28.6678,77.282
905,U01261,Punjabi Bagh Club,28.663517,77.131133
906,U03198,Seelam Pur Metro Station,28.67051,77.265754
907,U00165,Tikari Village,28.6875,76.9708
909,U01053,DDU Hospital,28.628,77.1107
910,U02215,CV Raman ITI,28.7208333333333,77.20005
912,DC3706,CRPF Camp / Crown Plaza,28.527783,77.2722
913,U03107,Tara Apartment,28.524,77.256
914,DC3600,Jahangir Puri Metro Station,28.7273,77.161583
915,U02237BJP,Budha Jayanti Park,28.615317,77.175317
916,DC4117,Bank Enclave,28.638617,77.269717
917,U02566,Anandlok,28.5582,77.2184
918,DC4309,Kapil Vihar,28.699602,77.134723
919,U02729,Vocational College,28.5322,77.2278
920,U00527BPC,IOC Dwarka Road,28.5445,77.0648
921,U00881,Peera Garhi Metro Station,28.68,77.0929
923,U01005,Rithala School,28.7150833333333,77.1039
924,U03156,Ram Puri Gali No 13,28.5346,77.2602
925,U00968,G Block Hari Nagar,28.628,77.100233
926,U00561,Uttam Nagar,28.623017,77.06031
927,U00546,Rajiv Nagar,28.724767,77.058683
928,U02666,Andrews Ganj Shiv Mandir / Ansal Plaza,28.56545,77.2245
929,U01192,Rohini Sec 7 and 8 Crossing,28.708133,77.125317
930,U02838,National Stadium,28.6136,77.2347
931,U99918,E.S.I. Hospital,28.515967,77.28055
932,U01900,ISTM,28.552767,77.181
933,U99890,Telephone Exchange,28.675817,77.309217
934,DC4372,Ranhola Extension,28.657889,77.043025
935,U03138,Nizamuddin Road Bridge,28.599043,77.257822
936,U02655,I P College,28.679633,77.223967
937,DC3537,Om Vihar,28.621,77.052203
938,U01094,Engg College Shahbad,28.745317,77.116433
939,DC3729,Pusta No 3 Sonia Vihar,28.725583,77.2448
940,U02164,Chetan Bihari Mandir Sant Nagar,28.7447,77.198
941,U02594,Banarsi Daas Estate Timarpur,28.69714,77.220359
942,DC0139,Bank,28.52585,77.273517
943,U02625,Vigyan Bhawan,28.610217,77.22165
944,U02760,Dayal Singh College,28.592183,77.228983
945,U99957A,Jal Vihar Terminal,28.578443,77.245874
946,DC4223,Mukundpur (Changeover Point),28.72506,77.18286
947,DC3563,Nangli Sakrawati Crossing,28.616417,77.007333
948,DC3540,Mohan Garden,28.62012,77.0401
949,U03434,Surajkund Crossing,28.5015,77.2903
950,DC4200,Princess Park/ Airforce Noval Office Enclave,28.587688,77.066452
951,U01544,Swatantra Bharat Mills,28.663528,77.155197
952,U02705,Nehru Vihar Crossing,28.709067,77.226233
953,U99750,PS Ranhola,28.653399,77.03552
954,U00191,Nazafgarh Terminal,28.61465,76.9779
955,U00079,Mitraon School,28.6069,76.9394
956,U01465,Bentex,28.6442,77.1477
957,DC4492,Jharoda Kalan,28.655132,76.949972
958,U03661,Gagan Cinema,28.6957,77.3153
959,U01478,Britannia,28.6849,77.1492
960,DC4054,Krishna Marg Kardam Puri,28.696833,77.281817
961,U01753,Wazir Pur JJ Colony,28.6821,77.170133
962,DC3663,Chhawni Hospital,28.599133,77.125683
963,DC3997,Rohini Sec 22 Terminal,28.717833,77.063783
964,DC3931,Sector 17/18 More Dwarka,28.59345,77.033267
965,U03541,Ashirwad Apartment,28.634483,77.301867
966,U02287,Saket A Block (Malviya Nagar Metro Station),28.528,77.205
967,U01234,Kabul Line,28.5978,77.1287
968,U00588,Uttam Nagar Terminal,28.625329,77.066948
969,U00284,Jhatikara Xing,28.5845,76.9956
970,U00465,Rama Vihar,28.728583,77.045817
971,U02832,Mandi House,28.625767,77.234333
972,U02949,Kailash Colony,28.554483,77.2432
973,U01036,Rithala Metro Station,28.7198,77.1087
974,U01014MPS,Mangolpur School,28.694767,77.106433
975,U01187,Rajdhani College / Raja Garden,28.656033,77.125833
976,U00779,Mangla Puri Terminal,28.5899833333333,77.0870166666667
977,U02454,Khel Gaon / Siri Fort Road,28.5507,77.210817
978,DC3689,Civil Line Metro Station,28.676717,77.225033
979,U01920,Mukund Pur Crossing,28.73215,77.182433
980,U02788,Andrews Ganj,28.565967,77.2306
981,U02406,Ice Factory (Rani Jhansi Road),28.667237,77.209039
982,DC4326,Goyla Village,28.587602,77.008644
983,U01479,Libaspur GT Road,28.752483,77.14945
984,DC4469,Mundhela School II,28.614198,76.895717
985,U03773,New Seema Puri Depot Cluster,28.684864,77.331577
986,U02325,Maharishi Balmiki,28.7051,77.204933
987,U02131,Nauroji Nagar,28.569294,77.195057
988,U99871,Tughlaq Crescent,28.5949,77.212
989,U01348,Payal Cinema,28.6314,77.1384
990,U99632,Agar Nagar,28.703277,77.043984
991,DC4412,KharKhari Jatmal,28.582264,76.958092
992,U02660,Minto Road Terminal,28.639324,77.223869
993,DC0043,Sec-24 Rohini,28.7283,77.0926
995,U01060,Puspanjali Enclave,28.696267,77.1112
996,DC0020,Saleemgarh Road,28.6502,77.2524
997,U00609,Budhela Village / C Block Vikas Puri,28.6354,77.070533
998,U00961,Mangolpur Kalan Village,28.6957,77.1012
999,U00809,Palam Colony,28.581483,77.096017
1000,U02113,Pusa Road Petrol Pump Sadhu Vaswani Marg,28.6448,77.1934
1001,U00574,Kirari Railway Xing,28.686399,77.062712
1002,U02118,Talkatora Stadium Garden,28.621483,77.194617
1003,DC0056,Mukharji Nagar Tank,28.7105,77.2112
1004,DC3915,Maya Enclave,28.616667,77.110233
1005,U99849,Kaka Nagar,28.60575,77.2371
1006,U02104,Vinay Marg,28.5862,77.1934
1007,U99803A,Kirodi Mal College,28.6833333333333,77.2085
1008,U01897,R K Puram Sec-4,28.5618,77.1807
1009,U02593,Mall Road,28.693917,77.219883
1010,DC0072,Nirman Bhawan,28.6105,77.215867
1011,U99931A,Lodhi Hotel,28.591317,77.239667
1012,U00672,Vijay Enclave,28.6062,77.0755
1013,U00799,Hanuman Mandir Rohini Sec 24,28.722667,77.08745
1014,DC4389,TilangPur Kotla,28.651233,77.0302
1015,U01536,Masood Pur Village,28.525433,77.154483
1016,DC0003,Rohini West Metro Station,28.7154,77.1147
1017,U00748,T Block Magol Puri,28.689348,77.082071
1018,U01635,Dhaula Kuan,28.592721,77.163492
1019,DC4429,Ghuman Hera DTC Depot,28.534088,76.915012
1020,U00657,Rohini Sec 20/21 More,28.715887,77.074077
1021,U02429,Bhavishya Nidhi Enclave,28.5428,77.209567
1022,U02421,Sewa Kutir,28.70265,77.2098166666667
1023,U02843,MCKR Hospital,28.569167,77.23525
1024,NS0199,Puspanjali G Block,28.5427,77.072883
1025,DC4303,Lok Vihar,28.612699,77.135213
1026,U00398,Mundka Village Metro Station,28.682252,77.029944
1027,U00589,Dwarka Sec 2-6,28.597367,77.064883
1028,U02837,Kouria Bridge,28.6603,77.2346
1029,U03745,Kondali Old,28.613051,77.322989
1030,DC4452,Rewla Tajpur Crossing,28.572245,76.980779
1031,DC4515,Brar Square,28.6073263152858,77.1409517654622
1032,DC1102,Okhla Depot IV CWS II,28.51835,77.284767
1033,U00377,Kakrola Bridge,28.619758,77.024856
1034,DC0097,Kushak Nallah Depot,28.57985,77.22495
1035,U02771,ISBT Kashmere Gate,28.6667333333333,77.2294
1036,U03102,B-Block East of Kailash,28.562167,77.255617
1037,U99761A,Bhajan Pura,28.70355,77.263367
1038,U01711,Jahangirpuri K Block,28.7304,77.168
1039,DC3974,Hargovind Enclave,28.645917,77.30105
1040,U01535,Swatantra Bharat Mills,28.663167,77.154733
1041,U99853A,Shaheen Bagh Thokar No 5,28.552517,77.29995
1042,U01263,Shivaji Park,28.674683,77.131433
1043,DC4366,Qamruddin Nagar,28.675067,77.061483
1044,U03282,Holy Family Hospital,28.56095,77.275467
1045,U00351,Baprola Village,28.640823,77.011757
1046,U03148S,Ashram Chowk,28.571233,77.259017
1047,U00252,Nirmal Vihar,28.62545,76.992433
1048,DC3872,Kotla Vihar Phase II,28.648417,77.025167
1049,DC4014,Jhuljhuli Crossing,28.531617,76.907067
1050,DC4037,Radha Swami Satsang,28.620517,77.307533
1051,DC4183,Dwarka Sec-21 Metro Station,28.5516666666667,77.0566833333333
1052,U02577,New Delhi Railway Station Gate 1,28.641317,77.21865
1053,U00276,Jhatikara Crossing,28.585867,76.994978
1054,U99789,Rani Khera Bus Stand,28.7046,77.0278
1055,DC3749,Buddh vihar,28.70415,77.087483
1056,DC3991,Mauj Pur,28.689372,77.278191
1057,U03203,Kalkaji Depot,28.539467,77.266233
1058,DC3703,Vikas Puri Crossing,28.6295,77.06885
1059,U01602,Outer Ring Road Makbara Chowk,28.736833,77.159933
1060,U02246,Clock Tower,28.6774,77.201633
1061,U02340,Maurice Nagar II,28.68655,77.2057333333333
1062,U00835,Ganesh Nagar Check Post,28.634383,77.0893
1063,U99860,R R Line,28.60415,77.155333
1064,U01815,Bapu Dham,28.5992,77.1753
1065,U00741,C-2 Janak Puri,28.616099,77.081447
1066,U99792Z,Karala Xing,28.731415,77.032086
1068,U02990,Shanti Vana,28.6497,77.2458
1069,U02158,Nirankari Sarovar Burari Xing,28.7271,77.1978
1070,U03099S,Khajuri,28.70465,77.2571
1071,DC3626,Suraj Vihar,28.613433,77.03315
1072,U02237BP,Budha Jayanti Park,28.61538,77.17517
1073,U00603,Uttam Nagar / A1 Janak Puri,28.624233,77.067867
1074,DC4306,Harsh Vihar,28.694734,77.134755
1075,DC4475,Keshav Nagar Darshan Dham,28.784103,77.180028
1076,U01661,Kishan Garh,28.514417,77.164167
1077,U03764,Mayur Vihar Phase III Crossing,28.6023484928639,77.32566419165
1078,U00700,Mata Chandan Devi Hospital,28.618876,77.078653
1079,U02578,Windsor Place,28.618,77.2189
1080,DC3726,Pusta No 1 Sonia Vihar,28.718883,77.24335
1081,U00964,Rohini  Sec-1 Avantika,28.703,77.0998
1083,DC4704,E Block Greater Kailash- II,28.537437,77.240908
1084,U02460,Begumpur,28.536667,77.209583
1085,U00933,Tilak Nagar,28.6352,77.0971
1086,U01531,Ram Pura,28.67195,77.15395
1087,DC4512,Satya Puram Jharoda,28.663192,76.945139
1088,U03035,South Park Appartments CR Park,28.5411,77.24915
1089,U02908,Pant Nagar,28.583567,77.2406
1090,U00359,Dariyapur Kalan School,28.8089333333333,77.0148666666667
1091,U03077,Nehru Nagar,28.568283,77.253917
1092,U01267,Madhuban Chowk (Outer Ring Road),28.7054,77.132
1093,U00003,S.K.V.Dhansa,28.5576,76.8622
1094,U02889,Tilak Bridge,28.6241,77.2394
1095,U03746,Shahdra Border,28.6758,77.3231
1096,U03391,Mother Dairy,28.619267,77.286067
1097,U02693,Ajmeri Gate,28.643383,77.225733
1098,U01245,Punjabi Bagh Club,28.663217,77.130183
1099,U99975,Vasant Lok,28.560433,77.164383
1100,U01915,Mehrauli Terminal,28.5217372755846,77.1826898067577
1101,U01126,Deepali Chowk,28.69835,77.1195333333333
1102,U02116,Green Field School,28.56604,77.19428
1103,U03750,Shahadara Border Road No 62,28.677683,77.323483
1104,U00745,Mangolpuri S Block,28.6927,77.082
1105,U02632,J and K House,28.6019,77.2226
1106,DC4552,Kurani More,28.840835,77.090527
1107,U03326,Harkesh Nagar,28.543933,77.279483
1108,U02770,Sujan Singh Park,28.601017,77.22945
1109,DC4575,East Vinod Nagar Depot,28.620318,77.300148
1110,U03437,P S Pandav Nagar,28.6142,77.2911
1111,U00891,Peera Garhi Depot,28.675,77.094
1112,U01119,DDA Flats Hari Nagar,28.6308,77.1193
1113,U01069,Zunk Market,28.618433,77.11235
1114,DC3666,Chhawani Hospital,28.59995,77.1249
1115,DC4289,SDM Office Bank Enclave,28.643403,77.270221
1116,U01510F,Air Force HQ / Subroto Park,28.584133,77.146033
1117,U02671,Lodhi Colony,28.5846,77.2246
1118,U01730,R K Puram Sec-5,28.56055,77.17025
1119,DC4097,Vivek Vihar ITI,28.6707,77.315833
1120,U00792,Dabri Xing,28.61195,77.086033
1121,U02644,Lodhi Road Crossing,28.592,77.2237
1122,U02718,Vocational College,28.532283,77.22695
1123,DC4243,Teen Murti,28.606083,77.198917
1124,U00745MP,S Block Mangol Puri,28.692667,77.082583
1126,U03202,Bala Sahib Gurudwara,28.5821,77.26555
1127,U01163,Supply Depot,28.606633,77.123233
1128,U02255,Guru Govind Singh Crossing (Faiz Road),28.653054,77.202311
1129,U03274,CRRI,28.550467,77.27485
1130,U99804,Ice Factory,28.6663,77.2087
1132,U02125,Burari Garhi,28.7578,77.1952
1133,DC3835,Karol Bagh Gurgaon Stand,28.64376,77.19701
1134,U03215,Yamuna Vihar Block C-1,28.7033,77.2676
1135,U02744,JLN Marg,28.64205,77.228333
1136,U99974,PS Tuglak Road,28.599867,77.211267
1137,DC3643,Prehlad Pur,28.579517,77.101617
1138,U03527,Badarpur Village,28.502033,77.300367
1139,DC4329,St Thomas School Goyla Vihar,28.581902,77.015056
1140,U01494,Bentax,28.644717,77.147667
1141,U03458,MIG Flates Loni Road,28.70065,77.295217
1142,DC4266,East Guru Angad Nagar,28.641233,77.282717
1143,U01033,Rithala Metro Station,28.7196,77.1084
1144,DC3772,Prem Nagar,28.742883,77.146467
1145,U00852,Janak Cinema,28.610881,77.092159
1146,U02342,Kendriya Terminal,28.6174,77.203467
1147,DC4160,Deep Market Ashok Vihar,28.69345,77.173233
1148,U03540,Neethi Apartment,28.6314,77.302
1149,U99983,Rajendra Place / Karol Bagh Telephone Exchange,28.642667,77.180083
1150,U00392BM,Bamnoli Crossing,28.539267,77.029983
1151,U02386,Thana Sabzi Mandi- Ice Factory,28.66925,77.207667
1152,DC3686,Shaheen Bagh Thokar No. 6,28.55137,77.300588
1153,U99828,Samalka Xing,28.5378,77.0927
1154,DC3580,New Usman Pur Pusta No-1,28.679967,77.256017
1155,DC4074,GTB Hospital Crossing,28.690067,77.307817
1156,U01303,Naraina Vihar,28.627183,77.13375
1157,U02081,Africa Avenue,28.56965,77.19145
1158,U02187,RML Hospital,28.62505,77.198717
1159,U02405,Chitra Gupta Road,28.6411,77.2085
1160,U03581,Trilokpuri 13-Block,28.6126,77.3062
1161,U01886,Telephone Exchange Karol Bagh,28.642914,77.181798
1162,U03273,CRRI,28.551067,77.27395
1163,U03296,Welcome Colony Metro Station,28.672,77.275
1164,U02079,Akbar Bhawan,28.586,77.1911
1165,U01510,RR Hospital / Maharana Pratap Chowk,28.59015,77.15675
1166,U00691,M Block Vikaspuri,28.6386,77.077717
1167,U01550,Jai Mata Market Tri Nagar Terminal,28.681367,77.155417
1168,U00698,C-1 Janakpuri,28.6174,77.0785
1169,DC3855,Deep Vihar,28.7349,77.0871333333333
1170,U01121,Madipur JJ Colony Metro Station,28.676383,77.1205
1171,U02920,Amir Khusro Park / Oberoi Hotel,28.596267,77.240433
1172,DC3809,Madanpur Khadar,28.532333,77.296417
1173,DC0075,Chirag Dilli,28.542,77.2308
1174,DC4346,Dwarka Sec-19 Modern School,28.578591,77.054908
1175,DC4246,Sena Bhawan,28.6082,77.206667
1176,DC4392,Ranhola II,28.65466,77.038019
1177,DC0006,Rithala Crossing,28.7119,77.1078
1178,DC4449,Rishal Vihar,28.553603,76.992783
1179,U03492,Meet Nagar/Ashok Nager,28.7001,77.297483
1180,U02522,Palika Kendra,28.62875,77.216567
1181,U02968,Pumposh Enclave,28.5435,77.2441
1182,U02316,Bara Hindu Rao,28.6616,77.2048
1183,DC3912,Sarai Rohilla Flyover,28.667133,77.182067
1184,U03723,Kalyan Puri Xing,28.6144,77.3214
1185,U01942,Amrit Vihar Colony,28.7645,77.1838
1186,U00249,BDO Office Roshan Pura,28.600501,76.988597
1187,U02239,Raj Nagar,28.5701,77.2011
1188,U00419,Mundka Village Xing,28.6825,77.035733
1189,U99819Z,Mubarakpur Xing,28.712583,77.028028
1190,U00976,Sant Pura,28.638567,77.100583
1191,U00922,Shahbad Dairy,28.7465,77.0963
1192,U01722A,Shanti Niketan / RK Puram Sec 9,28.5747824927672,77.1687699879572
1193,U03217,C-Lal Chowk,28.5345,77.2683
1194,DC3832,DSIDC Bawana/ Dhakewala,28.78585,77.0414
1195,U01762,Janak Vihar,28.6312,77.1712
1196,DC4369,ShivRam Park,28.667717,77.055233
1197,U03063,Sri Niwaspuri / PG DAV College Lajpat Nagar,28.56675,77.253117
1198,DC4220,Shalimar Bagh Desu Colony,28.718695,77.158424
1199,DC4120,Kali Bari Marg,28.630717,77.197933
1200,U02755,Defence Colony,28.574267,77.228733
1201,DC3683,Nai Basti,28.561467,77.294667
1202,U00067,Surehra Crossing,28.60418,76.932332
1203,U02479,Tees Hazari Animal Hospital Mori Gate,28.6644,77.215233
1204,U02235,Roshnara Bagh,28.6717,77.2007
1205,U01517,Masood Pur Village,28.52535,77.154683
1206,DC4558,DJB,28.815305,77.057968
1207,U02512,Tees Hazari Court,28.6668,77.2188
1208,U00544,Rajeev Nagar,28.7247333333333,77.05875
1209,U01350,Pitampura CD Block (Aggrasen model School),28.7058,77.1386
1211,DC3543,Arjun Park,28.618083,77.013083
1212,U02306BM,Balmiki Mandir,28.639867,77.2043
1213,DC4057,Gokul Puri,28.702083,77.2828
1214,U03249,Sukhdev Vihar Depot,28.554867,77.27125
1215,DC3606,Libas Pur GT Road,28.7501,77.150733
1216,U01459,Power House,28.672702,77.147024
1217,DC3994,Zafrabad,28.676269,77.271694
1218,U02262,Kamla Nagar/ Roop Nagar,28.68405,77.202317
1219,U02491,Mukharji Nagar Xing,28.7093,77.2137
1220,U01613,Shalimar Bagh Richi Rich,28.7017833333333,77.1643833333333
1221,U02338,CV Raman ITI,28.726683,77.2048
1222,U00363,BakkarWala Crossing,28.643213,77.01611
1223,U01296,Shastri Bazar,28.5966,77.1347
1224,DC4535,Maharaja Agrassen School,28.835983,77.079317
1225,U03289,MB Road (TBag),28.505533,77.276483
1226,DC4143,Cargo / Express Terminal Gate,28.555807,77.09753
1227,U02817,Central School,28.562817,77.2328
1228,DC0109,Preet Vihar,28.639333,77.292417
1229,DC4472,Mundhela Khurd Village,28.617265,76.893125
1230,U01225,SPM College,28.675417,77.128033
1231,U00593,Lokesh Cinema Nangloi,28.6822,77.060033
1232,U03180,Kalkaji Mandir,28.55135,77.26385
1233,U00467,DPS Matiyala,28.60465,77.046233
1234,DC4495,S.Sr. Kanya Vidhyalaya,28.64673,76.956049
1235,DC3934,Dwarka Sec 16C/GGS IP University,28.594917,77.022233
1236,U03505,Chandar Vihar,28.633,77.299
1237,U00321,Sumesh Vihar,28.5579,77.0044
1238,DC4017,Dauralla Border,28.50795,76.897133
1239,U03676,Gazipur Depot,28.64175,77.316033
1240,U00754,Manohar Nagar,28.6427,77.083
1241,U02438,Shahpur Jat,28.5482,77.21
1243,U01354,Uttri Pitam Pura,28.715117,77.138917
1244,U02395,GTB Nagar / Haqiqat Nagar,28.698283,77.2076
1245,U00757,Kapashera Village,28.5235,77.08325
1246,U03031,Lajpat Nagar 1 Ring Road,28.5655,77.24548
1247,U00623,Tilak Pul,28.6215,77.07
1248,DC4323,Shyam Vihar,28.591481,77.000564
1249,U01935,RK Puram Crossing,28.5682,77.1836
1250,U00320,Sumesh Vihar,28.5579,77.0043
1251,U01249,Rohini Sec 18 Bus Terminal,28.744717,77.1301
1252,U01202,Rohini East,28.7074,77.1261
1253,DC3592,Shastri Park Pusta Road,28.674017,77.2563
1254,U01667,Ashok Vihar Crossing,28.701433,77.164083
1255,NS0189,Mahipal Pur Village,28.545667,77.123083
1256,DC0060,Ekta Garden- Harijan Basti,28.7563,77.1971
1258,DC0081,North Paint Nursing Home,28.5427,77.2176
1259,U00938J5A,C-5A Janakpuri,28.6155,77.097
1260,U02775,Sewa Nagar Flyover,28.57875,77.229533
1261,U01426,DAV School,28.6998,77.1438
1262,U00986,Hari Nagar Depot,28.6245,77.1018
1263,U01848,R K Puram Sec-1,28.5647,77.1783
1264,U02121,Tibiya College,28.6574,77.1947
1265,U00965,Sagarpur / Vashisht Park,28.6091,77.0996
1266,U00896,Mangol Pur Khurd,28.699967,77.094383
1267,U00759,Kapashera Village,28.524517,77.0837
1268,U00667,Sultanpuri Terminal,28.70305,77.075467
1269,U02182,Sant Nagar Main Market,28.7418,77.198
1270,U01325,Naraina Village,28.618133,77.13675
1271,U02163,PTS,28.531233,77.196833
1272,DC3861,Mubarakpur School,28.71205,77.033933
1273,DC4332,Nehru Bus Stand Goyla Dairy,28.580346,77.019327
1274,U03190,Laghu Udyog Sansthan (ModiMill),28.5565,77.2648
1275,U01929,Bara Bagh,28.7017,77.1831
1276,DC4524,Panchayat Ghar,28.797927,77.031801
1277,U03609S,Parivar Apartment,28.62675,77.30935
1278,DC3669,Khel Gaon CWG Village,28.606621,77.274337
1279,DC4255,Nangal Raya DDA Market,28.609683,77.1068
1280,U03609,Parivar Apartment,28.626417,77.3091
1281,U03132,DDA Flats Kalkaji,28.5283,77.2576
1282,DC4063,Virender Nagar/ Dilli Haat,28.623584,77.09761
1283,DC3738,Annpurna Mandir,28.74245,77.246567
1284,U00224,PS Najafgarh,28.609583,76.98295
1285,U02285,Videocon Tower,28.6441,77.2036
1286,U01018,Multan Nagar,28.678083,77.105467
1288,DC4126,Bank Enclave,28.639067,77.2693
1289,U01554,Shadipur Colony,28.6517,77.1565
1290,DC4026,Samaspur Khalsa,28.578549,76.909937
1291,U02293,Kendriya Terminal,28.6173,77.2035
1292,U02946,Metro Train Depot,28.673867,77.241633
1293,U03089,Nehru Place Terminal,28.5481,77.2552
1294,U00605,Uttam Nagar Terminal,28.626136,77.06845
1295,U01776,Moti Bagh Gurudawara Nanakpura,28.584933,77.172167
1296,U03075,Nizamuddin Road Bridge,28.6034,77.254233
1297,DC3941,Mayur Vihar Phase III Terminal / Paper Market,28.618229,77.341004
1298,U01780,New Sabzi Mandi,28.7139,77.1725
1299,U03416,Nirman Vihar,28.636783,77.287683
1300,U02899,Zoo,28.6084,77.23995
1301,U02469,Tughlaq Crescent,28.5942,77.212
1302,U99609,Karala School,28.7308,77.0398
1303,U99949T,Keshav Mahavidhyalaya,28.68715,77.12005
1304,U02937,Delhi Gate,28.63735,77.241217
1305,U03154,Govindpuri Extn Gali No. 16,28.5329,77.2596
1306,U00427,Bawana School,28.796201,77.035577
1308,U01051,Zunk Market,28.6171,77.1108
1310,U00315,Harewali Xing,28.818533,77.002817
1311,U02575,National Archives,28.6156,77.2188
1312,U03627,Nand Nagari Terminal,28.691383,77.310483
1313,U03187,Bhajanpura,28.703351,77.263706
1314,DC3957,Rani Bagh Railway Colony,28.68395,77.12885
1316,DC4149,Centaur Hotel / Nangal Dairy,28.548933,77.104717
1317,U01902,Shastri Nagar Metro Station,28.670231,77.181136
1318,DC4541,Safiyabad Xing,28.855266,77.08973
1319,U03192,Tughlaqabad Village,28.509283,77.265
1320,U02135,Ashoka Hotel,28.5944,77.196
1321,U02362,Green Park,28.5572,77.2068
1322,DC3529,Kair Village,28.623067,76.9206
1323,U00275,Ghevra Crossing Rohtak Road,28.68545,76.99485
1325,DC0009,Avantika Crossing,28.6989,77.0968
1326,U01270,Madhuban Chowk (Outer Ring Road),28.7048,77.1322
1327,U03780,New Kondali A1 Crossing,28.602967,77.329133
1328,U02824,Jaipur House,28.6095,77.2332
1329,U01649,Swami Malai Mandir,28.567817,77.16495
1330,U02488,Sucheta Kriplani Hospital,28.63635,77.21395
1331,U01239,Kabul Line,28.5977,77.1292
1332,DC4478,Bharthal Village (Shyam Mandir),28.543017,77.043635
1333,DC4501,Surakh Pur Crossing,28.615549,76.976354
1334,U02696,Bhartiya Vidya Bhawan,28.6219,77.2258
1335,U02613,Khyber Pass,28.6902,77.2214
1336,U03473,Pocket-5 Mayur Vihar Ph-1,28.6132,77.2955
1337,U01727,Inderlok Metro Station,28.673633,77.168983
1338,DC3980,Mauj Pur,28.6891,77.27765
1339,U02565,Peeli Kothi,28.6624,77.2181
1340,U01486,Netaji Subhash Palace (Wazirpur Depot) Road No 41,28.69415,77.151033
1341,U03795,Dilshad Garden Depot Cluster,28.685558,77.331408
1344,U01968,Government Quarter Sarai Rohila,28.6613,77.184633
1345,U00722,Kangra Niketan,28.639133,77.081983
1346,DC4564,Primary School,28.797786,77.033746
1347,DC0029,Nityanand Marg,28.66835,77.225
1348,U00825,C2B Janakpuri,28.621233,77.088917
1349,U00010,Dhansa Village,28.557767,76.868767
1350,DC4415,Hasanpur Village,28.556475,76.936796
1351,U00420,Bawana Village,28.80175,77.039147
1352,DC4438,Shiv Enclave Dichau,28.624102,76.984675
1353,DC4461,Jhatikra Crossing Pandwala Road,28.584748,76.995233
1354,U00309,Harewali Crossing,28.81855,77.003033
1355,DC4484,Surakh Pur Crossing,28.61549,76.976275
1356,U02294,Nirankari Colony,28.7148,77.204
1357,U02761,Ambedkar Nagar Depot,28.515267,77.2284
1358,U01335,Kirti Nagar,28.654783,77.136667
1359,U01912,Shastri Nagar Metro Station,28.669997,77.181336
1360,U01627,B3 Keshav Puram,28.6861,77.1629
1361,U03495,KarKarDooma Crossing,28.643217,77.297317
1362,U02831,Mandi House,28.625567,77.233933
1364,U03494,Karkardooma Crossing,28.692917,77.297183
1365,U01340,Rang Puri Pahari,28.537983,77.137
1366,U02220,Faiz Road,28.6495,77.1998
1367,U01071,Shiv Murti,28.535683,77.11255
1368,U02542,Lucknow Road,28.695844,77.216119
1369,U99895,Shivaji Stadium Terminal,28.632583,77.215467
1370,DC0051,ISBT Ring Road,28.6717,77.2315
1371,DC4192,Shanti Niketan,28.572969,77.163914
1372,DC3944,Kerala School,28.616,77.34095
1373,U00301,Hiran Kudna Crossing,28.684917,77.001267
1374,U02301,Nirankari Colony,28.714883,77.2041
1375,DC3655,Mahindra Park,28.721715,77.166162
1377,U00510,Nilothi Crossing,28.664533,77.052633
1378,DC3901,Bawana,28.800283,77.035383
1379,DC4146,IGI Airport Terminal 2 (Air India Office),28.556837,77.09186
1380,U03464,Shashi Garden Xing,28.6136,77.2941
1381,U02845,Bapa Nagar,28.60635,77.234917
1382,U02133,Gur Mandi,28.6849666666667,77.1959333333333
1384,U01058,Beriwala Bagh,28.631183,77.112217
1385,U02436,Sunehri Masjid/ G Block,28.6094,77.2097
1386,U02567,South Extn Kotla Petrol Pump,28.568767,77.216767
1387,U02676,Swami Nagar,28.54215,77.224683
1388,U03159,SNPD,28.560733,77.260617
1389,U00585,Dwarka Sec 2-6,28.597267,77.0654
1390,U03165,Govindpuri,28.538,77.2615
1391,U00830,Udyog Nagar,28.67995,77.0895
1392,U00763,Krishna Vihar,28.706667,77.084217
1393,U02614,Asian Market,28.5166,77.2214
1395,DC4312,Nirmal Vihar,28.625333,76.992517
1396,DC3775,Jhilmil Crossing / Dilshad Garden GT Road,28.6764,77.318217
1397,DC4020,Dauralla Village,28.510917,76.8954
1398,NS0489,Vishwa Vidyalaya Metro Station,28.695084,77.215315
1399,DC4561,Dsidc Bawana,28.803268,77.042608
1400,U03305,C 4 Yamuna Vihar,28.702233,77.27835
1401,DC3632,Prehlad Pur,28.579683,77.101783
1402,U00306,AirForce Station (BaniCamp),28.63355,77.00245
1403,U00950,Fateh Nagar,28.631133,77.098567
1404,U02950,Lajpat Nagar Ring Road,28.5655,77.24565
1405,U03706,Kalyan Puri Terminal,28.615167,77.319267
1406,DC4272,Shivpuri Colony,28.651117,77.27835
1407,U03392,Swaran Cinema,28.662717,77.2863
1408,U00864,Janakpuri B-2,28.6263,77.0921
1409,DC4295,Rajdhani Enclave / Mahindra Park,28.683242,77.136765
1410,U02756,Dayal Singh College,28.592467,77.228717
1411,NS0392,Ridge Road,28.632626,77.188922
1412,NS0188,Mahipalpur Village (NH-8),28.5468,77.1237
1413,DC4249,China - Norve Embasy,28.600733,77.192517
1414,U04000A,Holy Family Hospital,28.5608,77.2727
1415,U01629,B-3 Keshav Puram,28.685683,77.163383
1416,U00266,Goela Dairy Crossing,28.591084,76.9931
1417,U02276,PS Mandir Marg,28.637583,77.202967
1418,U02137,IIT Gate,28.546167,77.195583
1419,U00369,Bamnoli Power Station,28.542017,77.018533
1420,U02489,Dispensary Paharganj,28.6449,77.2135
1421,U03576,Saini Enclave,28.6508,77.3056
1422,U02890,Tilak Bridge,28.6237,77.2393
1423,DC0012,Kanjhawala Chowk,28.73725,77.007217
1424,U00983,Rithala Village,28.717113,77.101457
1425,U03511,Power House,28.5073,77.3
1426,DC4335,Jhankar Crossing,28.579252,77.024293
1427,U01767,Vasant Vihar Depot,28.558917,77.172067
1428,U01589,Shani Mandir / Vasant Village,28.57572,77.159058
1429,U01885,RK Puram Sec-1,28.5642,77.1802
1430,DC3758,Indian Oil Corporation,28.686267,76.986533
1431,U01796,East Patel Nagar,28.6423,77.1733
1432,U03582,Nand Nagari Depot,28.698933,77.306333
1433,U01567,Vasant Kunj sec-B1,28.522483,77.1575
1434,DC3649,R R Line,28.5958,77.150933
1435,U00621,Rohini Sec-21,28.7188,77.069767
1436,U03076,Kartar Nagar,28.68945,77.25395
1437,U02739,Old Delhi Railway Station,28.660087,77.227876
1438,U01387,APS Colony/ Jharera Gaon,28.579967,77.144817
1439,DC3884,Dwarka Sec 21 Crossing Bharthal Chowk,28.554375,77.050144
1440,U01522,AIR Station,28.6265,77.1535
1441,U00712,District Centre Nazafgarh Road,28.630417,77.079983
1442,DC4186,Dwarka Sec-21 Crossing,28.551012,77.055873
1443,U01015,Rohini Sec 3/4/5/6 Xing (Vishram Chowk),28.7092,77.1054
1444,DC4209,Wazir Pur Industrial Area/ Ashok Vihar Crossing,28.701876,77.16732
1445,U01969,Gujranwala Town,28.6995,77.1849
1446,U02531,Delhi University,28.6882,77.2148
1447,U03516,Badarpur MB Road,28.4995,77.3005
1448,DC4123,Kali Bari Marg,28.630641,77.198066
1449,DC3735,Pusta No 5 Sonia Vihar,28.734467,77.246683
1450,DC3821,Sarita Vihar D Block / Madanpur Khadar Village,28.532133,77.2964
1451,U03025,IP Depot Metro Station,28.6195,77.249
1452,DC0035,Sunehari Pulla Depot / Jawahar Lal Nehru Stadium Terminal,28.591283,77.2333
1453,U00573,Kirari More,28.68245,77.063967
1454,U00016,Qadipur,28.5781,76.8798
1455,DC4421,Dewta Wala mandir,28.548976,76.930686
1456,U03503,Press Apartment,28.62285,77.2983
1457,U99991,Qutub Minar Metro Sation,28.51415,77.186167
1458,U03295,Laxmi Nagar / Shakarpur Crossing,28.629233,77.27735
1459,U02712,PS Kamla Market,28.643083,77.226
1460,U00261,Tuda Mandi,28.612458,76.99146
1462,U01732,Inderlok Metro Station,28.673217,77.169483
1463,DC4129,Geeta Colony,28.6551,77.273567
1464,U01595,Todapur Village,28.6228,77.1592
1465,U00954,Rajokari Crossing,28.522767,77.098683
1466,U00513,Nilothi Crossing,28.664852,77.053333
1467,U01410,PS Kirti Nagar,28.646473,77.14089
1468,DC3940,Radisson BLU Hotel,28.596183,77.03735
1469,U03633,Yamuna Sports Complex,28.659983,77.311733
1470,DC4252,South Enclave,28.610317,77.199317
1471,U99606,Meera Bagh,28.6588,77.091
1472,U99988,Lodhi Colony,28.514817,77.224533
1473,DC4229,Vivek Vihar Girls School,28.6691,77.318717
1474,DC3983,Chhajupur,28.68955,77.286983
1475,DC3960,Toll Tax Post,28.54325,77.013167
1476,DC4206,Ashok Vihar B Block,28.695926,77.170655
1478,U03144,DDA Market Kalkaji,28.5319,77.2591
1479,DC3795,Tahir Pur,28.691467,77.324817
1480,DC4398,Narain DharamKanta,28.670883,77.05775
1481,U02074,Model Town II,28.7040333333333,77.1905166666667
1482,U00756,JG 3 Block Vikaspuri,28.647117,77.0804
1483,U03600,GTB Hospital Xing,28.6901,77.3078
1484,U02630,J and K House,28.6012,77.2222
1485,U00195,Tikri Hospital,28.686597,76.978404
1486,U01211,Rajouri Garden Market,28.6457,77.127
1487,U02909,Supreme Court,28.621517,77.240333
1488,U01282,Shankar Vihar / National Highway 8,28.566633,77.13395
1489,U03124,Air Force Station,28.5114,77.256483
1490,U01941,Mukund Pur Chowk,28.7324,77.183583
1491,DC3695,PS Vikas Puri,28.631217,77.068583
1492,U00717,Kangra Niketan,28.6352,77.0805
1493,DC4498,Saraswati Kunj Jharoda,28.630863,76.965522
1494,U02728,Wazirabad Crossing GT Road,28.710499,77.227319
1495,DC4567,Krishna Vihar,28.789662,77.028066
1496,U03713,Ram Prastha Temple,28.6632,77.3202
1497,U00664,Vijay Enclave,28.60635,77.075033
1498,DC0130,Khichdipur,28.6258,77.31205
1499,U01044,Lajwanti Garden (Nangal Rai),28.6129,77.11
1500,DC1311,ESI Hospital,28.51425,77.281333
1501,DC4375,PS Ranhola,28.653517,77.03545
1502,U02704,Bhartiya Vidya Bhawan,28.6213,77.2264
1503,U01528WD,Wazirpur Depot,28.692033,77.153767
1504,DC3718,Shivaji Stadium,28.631033,77.215867
1505,U02792,Central School,28.559660,77.233602
1506,U00329,Nangli Sakrawati Crossing,28.616344,77.007924
1507,U01499,TV Tower (Power House),28.7,77.1514
1508,U02281,Padmani Enclave,28.5492,77.2034
1509,U03011,Gandhi Darshan,28.636983,77.247267
1510,DC3612,Anand Vihar ISBT Main Road,28.64696,77.317879
1511,U01550A,Jai Mata Market Tri Nagar Terminal,28.681483,77.155483
1512,U00903,C-4H Janakpuri,28.616333,77.09525
1513,U00353,Toll Tax Post,28.543267,77.0127
1514,U02151,IIT Gate,28.546,77.197
1515,U01223,Mahipal Pur Village,28.545867,77.126733
1516,U02605,Asian Market,28.5169,77.2208
1517,U02610,Timarpur,28.7006166666667,77.2212
1518,U99867,E.S.I. Hospital,28.5159,77.2805
1519,DC103,Baba Ramdev Mandir,28.6534166666667,77.1091333333333
1520,U02749,ISBT Maharana Pratap Bus (T),28.669,77.2286
1521,U01877,R K Puram Sec-4,28.563067,77.18
1522,DC0076,Don Basco School,28.527839,77.247072
1523,U01747,Adarsh Nagar Metro Station,28.717467,77.169917
1524,U01655,Ashok Vihar Xing,28.7021,77.16435
1525,DC0049,Power House Rohini Sec 24,28.726983,77.080267
1526,U03037,Bhogal (Jungpura),28.58465,77.249617
1527,U01607,Modern School Vasant Vihar F Block,28.55995,77.157267
1528,U01752,Satya Niketan Dhaula Kuan,28.588,77.170583
1529,DC4481,Keshav Kunj / Pochan Pur Crossing,28.557084,77.053209
1530,U02516,Kamla Nehru College/Niti Bag,28.55785,77.217533
1531,U02433,Khalsa College,28.694883,77.209683
1532,DC0118,Onida Factory,28.513267,77.297717
1533,DC4435,Dichau Village,28.639764,76.984106
1534,DC3858,Deep Vihar,28.738,77.0829
1535,U02389,Press Enclave,28.5279,77.2079
1536,U01433,Shakur Pur,28.685083,77.144817
1537,U02900,Zoo,28.608422,77.240216
1538,U00989,Hari Nagar Depot,28.624983,77.1022
1539,U99795A,Kanjhawala Chowk (Sarvodya Kanya Vidhyalaya),28.7376,77.008
1540,U00671,Prehladpur School,28.752783,77.075317
1541,U01867,Azadpur,28.7063,77.1795
1542,DC4521,Bajit Pur Xing,28.784999,77.023967
1543,DC4023,Ghumanhera Crossing,28.535283,76.909333
1544,U02124,Alpana Cinema (Model Town Mtr Stn),28.70265,77.19365
1545,U00768,Inder Enclave,28.680933,77.084217
1546,U03174,Kalkaji Mandir (MaaAnandmayeeMarg),28.5479,77.263
1547,U02306,Balmiki Mandir Marg,28.639967,77.204483
1548,U03087,Nehru Place,28.547317,77.254033
1549,U01329,Pittampura RU-Block,28.7077333333333,77.1345666666667
1550,DC4544,Sec 5/8 Narela,28.857128,77.097951
1552,U00836,Palam Colony Flyover,28.513817,77.091417
1554,U03121,Ashram (Hari Nagar),28.574146,77.256836
1555,U03167,Dharam Pura,28.670717,77.261917
1557,DC4066,Virender Nagar / Dilli Haat,28.6232,77.09615
1558,U02240,Meghdoot Bhawan,28.643667,77.201033
1559,U02099,Nanak Piyau / DTC Colony,28.691167,77.192667
1560,U01723,Inderlok Metro Station,28.6715,77.167733
1561,DC4458,Pandwala Khurd,28.562281,76.967398
1562,U03537,Neethi Apartment,28.6312,77.3017
1563,U03193,Seelampur Metro Station,28.67075,77.26545
1564,U01374,B Block New Moti Nagar,28.6635,77.1406
1565,DC3878,Kotla Vihar Phase II,28.648236,77.025586
1566,U99969,Liberty Cinema,28.6599,77.1891
1567,U02602,Lodhi Garden / Mousam Bhawan,28.590167,77.220617
1568,DC3778,Indra Kalyan Vihar,28.523283,77.2756
1569,U03408,Mother Dairy Crossing,28.618933,77.287867
1570,U03475,Govt Model School / Ambedkar Park,28.621733,77.294533
1571,U99949,Rani Bagh,28.68405,77.126083
1572,U03032,Rajeev Nagar,28.7062,77.2506
1573,U02716,ISBT Kashmere Gate (Lothian Road),28.66685,77.229517
1574,U03685,SFS Quarter Gazipur,28.630817,77.316617
1575,U03358,Ansari Health Care,28.5614,77.2836
1576,U03350,Shahdara (Shyam Lal College),28.6736,77.283533
1577,U02087,DDA Flats Lado Sarai,28.529983,77.192133
1578,U99809,Mubarakpur Xing,28.712817,77.027833
1579,U01475,Inder Puri JJ Colony,28.632,77.1491
1580,U02995,Nehru Place Apartments,28.5439,77.2461
1581,DC0115,Madanpur Khadar Crossing,28.529333,77.288417
1582,DC4338,Qutub Vihar Phase-I Kikar Stand,28.578247,77.02915
1583,U02274,Roshnara Road,28.6692,77.2045
1584,U01418,Karampura Terminal,28.660241,77.144044
1585,U01832,Mohan Singh Market,28.5668,77.1762
1586,U03060,C R Park Market II,28.537467,77.252683
1587,U00907,Desu Colony Janak Puri,28.610011,77.095348
1588,U01441,Pitampura ND Block,28.6959166666667,77.14585
1589,NS0253,COD Ring Road,28.612917,77.13735
1590,DC4292,Shakur Pur JJ Colony/ Britannia,28.684178,77.145419
1591,U01888,Moti Bagh 1,28.5804,77.1802
1592,DC4189,Lajpat Nagar (Ring Road),28.564933,77.242883
1593,U01382,Samrat Enclave,28.6853,77.141017
1594,U99942A,Gairison Eng.,28.6054,77.147567
1595,DC0032,Rohini Sec 22/24 Crossing,28.7203,77.069
1596,DC3977,Zafrabad,28.676117,77.271317
1597,U00220,Udaseen Ashram,28.621661,76.98823
1598,U01630,Indian AirLines/Priya Cinema,28.5587,77.158117
1599,DC4212,Shalimar Bagh AE Block,28.708248,77.166422
1600,U01864,Shankar Road,28.6391,77.179017
1601,U01455,Kathuria Public School (Sai Darbar Mandir),28.530983,77.1466
1602,U03551,Badarpur Border,28.493222,77.303353
1603,U03677,Gagan Cinema Wazirabad Road,28.697617,77.316867
1604,U02885,Delhi Gate,28.640767,77.238667
1605,U01010,Tihar Jail,28.6192,77.104417
1606,DC0100,Lodhi Colony,28.5847,77.2247
1607,U00112,Indra Service Station,28.608536,76.958755
1608,U02884,Jama Masjid,28.6508166666667,77.2384666666667
1609,U02706,Vivekanand Marg,28.640867,77.225733
1610,DC4504,Navin Palace,28.627806,76.967351
1611,U00497,Kirari Nahar,28.698817,77.053567
1612,U03395,Nirman Vihar Metro Station,28.63715,77.287067
1613,DC3675,Mangolpuri K Block (Sanjay Gandhi Hospital),28.694702,77.082072
1614,U03711,Dallu Pura,28.60875,77.32005
1615,DC4269,East Guru Angad Nagar,28.64115,77.282733
1616,U00386,Bawana Depot,28.803667,77.028517
1617,DC4518,Sultan Pur Xing,28.75634,77.015384
1618,DC3881,Bamnoli More,28.542449,77.029991
1619,U00013,Issapur Xing,28.57,76.8755
1620,DC4418,Ghuman Hera Village,28.532242,76.92242
1621,DC3732,Sonia Vihar,28.7324,77.246233
1622,U01376,F Block Kirti Nagar,28.651466,77.140817
1623,DC3963,Shri Golok Dham Bijwasan School,28.53355,77.059683
1624,DC3566,Nangli Dairy,28.620133,77.01795
1625,U02974,Police Station Nizamuddin (Dargah),28.591667,77.244633
1626,DC0084,Rampuri Gali No-13,28.5351,77.2592
1629,U02628A,Old Secretariat (Postal Account Office),28.6838833333333,77.2222833333333
1630,U01992,Shastri Nagar A Block,28.672401,77.186038
1631,U01281,Agarsen Hospital,28.6745333333333,77.1348166666667
1632,U02967,Delhi Gate / Ambedkar Stadium Terminal,28.639867,77.2437
1633,U00395,Kakrola Xing,28.6191,77.0314
1634,U99911,Jahangirpuri GT Road,28.7257,77.1628
1635,U01718,Ashok Vihar I Block,28.6853,77.1685
1636,DC4441,Daulat Pur Village,28.546873,76.963232
1637,U02932,Delhi Gate,28.637267,77.240917
1638,DC3904,PS Bawana,28.8066166666667,77.0231166666667
1639,U02887,Tilak Bridge,28.6253,77.2387
1640,U02200,Balti Factory,28.7467,77.1983
1642,U01039,Rohini Depot III,28.695633,77.109033
1643,U02560,Marina,28.6367,77.2183
1644,U99880,Shri Ram Institute,28.681252,77.212361
1645,U01076,Tagore Garden Metro Station / Tatarpur,28.6441,77.1136
1646,U02217,Geetanjali Enclave,28.5308,77.1997
1647,U02502PR,Prithvi Raj Road,28.596483,77.21755
1648,DC3692,A-3 Janak Puri,28.619583,77.079267
1649,DC3715,PSRI,28.5314,77.224183
1650,U01083,Swarg Ashram,28.6308,77.1149
1651,U99775A,Shalimar Bagh Xing,28.7088,77.1746
1652,U03944,Rajouri Garden,28.647738,77.119541
1653,U02297,Saket Metro Sation,28.520467,77.20265
1654,U02471,SJ Airport,28.584467,77.212267
1655,DC4378,TilangPur Kotla,28.649517,77.027167
1656,DC3841,Blood Bank,28.586733,77.11845
1657,U00488,Kiran Garden,28.620619,77.0049268
1658,DC3629,Matiyala Xing,28.605083,77.052383
1659,U01164,Supply Depot,28.606783,77.123367
1660,U03284,Yamuna Vihar Brij Puri,28.702667,77.275333
1661,U00288,Dichau Kalan Depot,28.629367,76.9977
1662,U00481,Rajdhani Park,28.6823,77.0487
1663,U02798,Pushpa Bhawan,28.52815,77.231567
1664,U02073,Prahlad Market,28.6538,77.1907
1665,U99729,Shaheed Park (Bhagat Singh Terminal),28.6351,77.241217
1666,DC3661,Old Seema Puri,28.680817,77.327867
1668,DC3638,NHW 8,28.5695,77.1326
1669,DC0137,Bank,28.5261,77.2736
1670,U02034,Karol Bagh Metro Station,28.6442,77.189
1671,U01338,Vaishali  Enclave / Kapil Vihar,28.6997,77.1371
1672,U03441,MIG Flates Loni Road,28.7004,77.295683
1673,U01285,Palam More,28.5682,77.1298
1674,U01764,Jahangirpuri E-Block,28.7324,77.1713
1675,U03099,Khajuri,28.704617,77.254433
1677,U01399,Karampura Terminal,28.661,77.142383
1678,U03086,Jagjit Nagar,28.686317,77.254567
1679,U01851,Azadpur Terminal,28.7072,77.1783
1680,U02779,Zakir Husain College,28.64115,77.229617
1681,U03300,Welcome Metro Station,28.672783,77.27715
1682,U01047,Hari Nagar Ghanta Ghar,28.624804,77.110518
1683,U02953,DPS / Police Station Nizamuddin(Lodhi Road),28.592933,77.242217
1684,DC3807,Satyawati College,28.69505,77.17952
1685,U02619,Mori Gate Terminal,28.665861,77.222085
1686,DC3761,Yojana Vihar/ Yamuna Sports Complex,28.663317,77.314617
1687,DC3949,Bhagwan Mahavir Hospital,28.687433,77.117117
1688,U02157,East Park Road,28.6508,77.1973
1689,U02139,PTS,28.531317,77.197033
1690,U03542,Ashirwad Apartment,28.6347,77.3022
1691,U00772,Inder Enclave,28.680517,77.084083
1692,U02473,AIIMS Ring Road,28.56915,77.212433
1693,U03073,Nizamuddin Road Bridge,28.603867,77.253667
1694,U00463,Nawada Gaon,28.620007,77.044129
1695,DC4447,Kangan Heri - I,28.548397,76.98869
1696,U03798,Bharti Public School,28.60535,77.333117
1697,U00575,Barwala School,28.759167,77.06275
1698,U02422,Sunheri Masjid/G Block,28.6096,77.2097
1699,DC4424,Pandwala Crossing,28.574027,76.952356
1700,DC4547,Sec 10A Pkt-6,28.849048,77.098446
1701,U01117,Madipur JJ Colony Metro Station,28.676398,77.118204
1702,U00352,Shivam Plywood,28.7352,77.0125833333333
1703,U01425,Moti Nagar,28.658867,77.144183
1704,U02826,Art Gallery,28.61035,77.233517
1705,U99630,Kirari Lal Mandir,28.697668,77.055991
1706,DC0038,Sec-24 Rohini Main Road,28.7271,77.0986
1707,U03462,Maruti,28.5217,77.2937
1708,U00731,Health Centre,28.592067,77.0813
1709,DC4324,Shyam Vihar,28.591403,77.000404
1710,U99894A,Tagore Garden,28.6477,77.1158
1711,U01677,Vasant Kunj Sec-A ILBS,28.5117,77.166767
1712,DC3538,Kiran Garden,28.620317,77.0468
1713,DC3929,Radisson BLU Hotel,28.596067,77.037467
1714,U03045,Bhogal,28.583533,77.250833
1715,DC4318,Chand Nagar,28.645221,77.099156
1716,DC3830,Aditi College,28.794167,77.036633
1717,DC4218,Shalimar Bagh BJ Block,28.712613,77.158747
1718,U00426,Karala Village,28.731583,77.036983
1719,DC4533,Kaushal Devi Netraheen Ashram,28.825479,77.069821
1720,U03515,Mansarovar Park Metro Station,28.675479,77.300119
1721,U00636,SFS Flat Sec-2 Power House,28.600333,77.071483
1722,U03189,Maharani Bagh / Ashram,28.576295,77.264457
1723,U99749A,B-3 Andh Vidyalaya,28.656483,77.108767
1724,U03570,Ras Vihar,28.6253,77.3051
1725,U03651,TELCO Gazipur,28.6409,77.3154
1726,U01175,Metal Forging,28.629,77.122817
1727,DC4132,Kasturba Gandhi Road Crossing,28.62198,77.223683
1728,U00653,Jivan park,28.6195,77.0736
1729,U01064,Rajeev Gandhi Cancer Hospital,28.71725,77.111833
1730,DC4195,Princess Park/ Airforce Noval Office Enclave,28.587302,77.066549
1731,U00913,B Block Mangolpuri,28.6891833333333,77.0954833333333
1732,U01860,Railway Colony (Sardar Patel Marg),28.600783,77.1785
1733,DC0001,Rithala School,28.7150666666667,77.1038666666667
1734,DC4301,Chander Lok,28.688635,77.135279
1735,U99816,Upper Ridge Road,28.63215,77.190017
1736,U02143,Shakti Nagar Nangia Park,28.679846,77.195746
1738,DC0107,Karkardooma Crossing,28.642917,77.2972
1739,U02539,Palika Kendra,28.62875,77.216467
1740,U01222,SPM College,28.6751,77.1281
1741,DC4387,Chanchal Park,28.6463,77.021333
1742,U01139X,Rohini Sec-16 Xing,28.7439,77.1208
1743,DC4341,St Marry School,28.5966333333333,77.14535
1744,U00472,Ranhola Village,28.655779,77.040633
1745,U02483,Vikas Sadan,28.5766,77.2134
1746,U02379,Safdurjung Hospital / AIIMS,28.56725,77.207733
1747,U00598,Uttam Nagar Terminal,28.625517,77.066133
1748,U99621,Samalkha More,28.537967,77.093683
1749,U01739,Vasant Kunj Sec-A Pkt-BC,28.5104,77.169617
1750,U99930ASTL,Indian Oil Station,28.577283,77.108833
1751,DC3698,CRPF Camp Keshopur,28.646361,77.084243
1753,DC3721,Naraina Vihar / Indra Market,28.626533,77.134783
1754,U02863,Lady Shri Ram College,28.5588,77.2371
1755,U02361,Bhai Parmanand Colony,28.7103,77.2086
1757,U01944,New Rajender Nagar,28.6366,77.183683
1758,DC3784,Qutub Minar Metro Sation,28.511733,77.1844
1759,U01086,Kali Mata Mandir,28.6969,77.1154
1760,U03724,Surya Nagar,28.666933,77.321467
1761,DC3678,Safdurjang Enclave,28.566078,77.190996
1762,U02411,Ice Factory,28.666851,77.209097
1763,U99980,Nehru Vihar,28.7116,77.2226
1764,DC4470,Mundhela School II,28.614073,76.895727
1765,U01174,Sai Baba Chowk,28.708817,77.124017
1766,DC4364,Keshav Nagar Mukti Ashram,28.779253,77.179936
1767,U00957,Shahbad Dairy A Block,28.7459,77.0985
1769,U01257,Mayapuri Chowk (Ring Road),28.638567,77.129883
1770,U03257,Bharat Nagar Crossing,28.5619,77.2723
1771,U99852A,Unani Hospital / Okhla Ext Thokar 3,28.558951,77.296058
1772,U01061,Shahbad Gaon,28.745283,77.111267
1774,U02293Z,Kendriya Terminal,28.6173,77.204
1775,DC4012,Malikpur Crossing,28.552433,76.907767
1776,DC0021,Geeta Colony Road Crossing,28.6512,77.2525
1777,DC3989,Shiv Mandir,28.6898,77.283783
1778,DC3966,Kapashera More,28.530683,77.086417
1779,DC4507,Surehra Village,28.5985889521003,76.9363090139898
1780,DC3870,BrahmPuri Colony,28.652115,77.032597
1781,DC4530,Jain Shukla Mandir,28.81186,77.053907
1782,U03161,Tughlaqabad Extension,28.5256,77.261
1783,DC0104,Surya Niketan,28.655617,77.310417
1784,U02025,Dev Nagar / Khalsa College,28.6553,77.1883
1785,U02893,Subhash Park,28.649317,77.23935
1786,U03634,Bank Colony,28.698,77.3115
1787,U00820,C2B Janakpuri,28.621222,77.088818
1788,DC3555,Jharoda Crossing / Nazafgarh Terminal,28.613678,76.980212
1789,U01879,RK Puram Sec-1,28.5643,77.1798
1790,U00993,St Xavier School,28.7455,77.1027
1791,U02973,ITO,28.627983,77.244433
1792,U00696,Dwarka Puri,28.607483,77.078267
1793,U03080,Kartar Nagar,28.68945,77.254167
1794,U02597,Firoz Shah Road,28.6208,77.2206
1795,U01779,JA Block Ashok Vihar,28.686767,77.172517
1796,U03095,Tara Apartments Terminal,28.523883,77.2552
1797,U01524,Pandav Nagar,28.650133,77.15335
1798,U03290,Okhla Tank,28.548383,77.276583
1799,DC3601,Mukarba Chowk,28.73475,77.155867
1800,U02860,Ishpat Bhawan,28.5924,77.23675
1801,U00527SMPX,Bharthal Under Pass,28.5476333333333,77.05735
1802,DC4381,BakkarWala Crossing,28.64335,77.016067
1803,DC3744,Gatta Factory Sonia Vihar,28.72945,77.24565
1804,DC4304,Lok Vihar,28.692995,77.134923
1805,DC3767,Christian Kabristan,28.730367,77.190083
1807,U00730,District Centre Outer Ring Road,28.6334,77.0811
1808,U00167,Prem Nursery,28.610333,76.9713
1809,DC3532,Bhagini Nivedita College,28.617904,76.931464
1810,DC3781,CRPF Camp Okhla Phase 1,28.528783,77.270333
1811,U02667,Lodhi Colony Market,28.584567,77.223367
1812,U02413,Panchsheel Club,28.546,77.2093
1813,U03743,Kondali Old,28.612978,77.322856
1814,U02722,Ambedkar Nagar Terminal,28.515588,77.22728
1815,DC4069,Sir Ganga Ram Hospital,28.63894,77.18816
1816,U02324,Rani Jhansi Road Jhande Walan,28.6456,77.205
1817,U99613,Shivam Plywood,28.735453,77.012023
1818,U01026,DA Block Hari Nagar,28.6251,77.106867
1819,U02828,Patiala House,28.6166,77.2338
1821,U03457,Radheypuri,28.654,77.2925
1822,U99798A,Radha Swami Satsang,28.7339833333333,77.02075
1823,U01787,R-Block Rajendra Nagar,28.6328,77.173
1824,U00632,Mahaveer Enclave Part II  and  III,28.603617,77.07105
1825,U00684,Prehladpur School,28.75305,77.07475
1826,U00459,Dwarka Sec 3-4,28.602633,77.043217
1827,U02065,Prahlad Market,28.6539,77.1909
1829,U99823,Mayapuri Depot,28.63685,77.12835
1830,U01840,Jahangir Puri Outer Ring Road,28.7346,77.176533
1831,U02128,Nauroji Nagar,28.569633,77.195533
1832,DC4155,M Block Sarojini Nagar,28.578472,77.189692
1833,U99922,St Stephen Hospital,28.6671,77.2149
1834,U01574,Prem Bari Pull,28.700267,77.158283
1835,U02019,R K Puram Sec-2,28.561567,77.188233
1836,U02948,Shastri Park Metro Depot,28.673433,77.241183
1837,U01581,Shadipur Metro Station,28.6515,77.1587
1838,U03379,Ganesh Nagar,28.621017,77.285233
1839,U00776,Janakpuri East Metro Station/ Nangli Zalib,28.633,77.0857
1840,DC3844,CPRTI/ Delhi Jal Board,28.63715,77.1924
1841,U01781,New Sabzi Mandi,28.7146,77.1724
1842,U03589,GTB Hospital Xing,28.6898,77.3066
1843,U03674,Super Bazar,28.613567,77.316317
1844,U02198,Guru Govind Singh Marg,28.655517,77.198983
1845,U01617,NASC Dasghara,28.6255,77.1621
1846,DC3704,Krishi Bhawan,28.617467,77.213083
1847,U02805,ISBT Maharana Pratap Bus Terminal,28.66872818,77.23190647
1848,U02519,Hauj Rani,28.5297,77.2158
1849,DC4241,Surya Nagar,28.667917,77.321283
1850,U02650,Ajmeri Gate / Kamla Market,28.644519,77.223625
1851,DC3578,Shastri Park Pusta Road,28.674017,77.256133
1852,U01448,Pitampura ND Block,28.6954,77.1461
1853,DC4570,Prem Piyau,28.765949,77.016532
1854,DC3907,C Block Mangol Puri,28.692483,77.09145
1855,DC4593,PWD Office / Aruna Nagar Ring Road,28.70253,77.22733
1856,U03466,Prehlad Pur,28.5,77.294633
1857,U02708,Akbar Road,28.610633,77.22595
1858,U03201,Bala Sahib Gurudwara,28.5812,77.266
1859,U03023,IP Depot Metro Station,28.6202,77.2485
1860,DC4029,Mitraon Village (Kair Village Road),28.608446,76.944717
1861,DC3641,Palam Airport Bypass,28.569417,77.123317
1862,U02581,Eastern Court,28.6239,77.219
1863,U03793,Dilshad Garden Depot Cluster,28.685545,77.331211
1864,U00849,Meera Bagh,28.659,77.091483
1865,U03155,Rampuri Gali No 13,28.53475,77.2601
1866,U02734,Siri Fort Road,28.55355,77.228117
1867,U00974,Sagarpur Vashisht Park,28.6092,77.1011
1868,DC0087,Raghubir Nagar F Block,28.65235,77.106567
1869,U99919,Humayun Road,28.603333,77.2272
1870,DC4115,St. Lawrence School,28.65235,77.269317
1871,DC4367,Aman Puri,28.673083,77.05975
1872,U03211,DDA Kalkaji Extension,28.527,77.267
1873,DC4344,Amrohi More,28.574383,77.05115
1874,U00462,Agar Nagar,28.7032,77.04415
1875,DC4152,Radisson Hotel / Mahipal Pur Crossing,28.545933,77.1232
1876,U03519,Badarpur M B Road,28.49935,77.29915
1877,DC4321,Khayala Colony Terminal,28.652202,77.095739
1878,DC4298,Mahindra Park Road No-44,28.684076,77.136129
1879,U02147,Talkatora Stadium,28.626217,77.196417
1880,U00440,MRV School Sec 13 Dwarka,28.604,77.039
1881,U00587,Begumpur,28.7216833333333,77.065
1882,U02720,Shahjahan Road UPSC,28.6074,77.226933
1883,U02032,Gulabi Bagh,28.675,77.1883
1885,U01230,Mayapuri Depot,28.636933,77.1289
1886,U02656,Police Station Timarpur,28.707017,77.223917
1887,U03504,Onida Factory,28.513183,77.297783
1888,U00612,Police Station Vikaspuri,28.63145,77.068767
1889,U00557,Barwala Village,28.7604,77.060533
1890,U02149,Dr. RML Hospital,28.6224666666667,77.19665
1891,U03223,Seelam Pur Metro Mall,28.670962,77.268275
1892,U00443,Karala School,28.7308166666667,77.0396666666667
1893,DC4444,Shikar Pur Crossing,28.545445,76.965281
1894,U03999A,Holy Family Hospital,28.5604,77.273
1895,U02208,Shakti Nagar,28.6804,77.1993
1896,U01899,ISTM,28.552283,77.181167
1897,U03697,National Highway 24 Crossing,28.6272,77.318217
1898,U02444,Red Cross Road,28.618035,77.210453
1899,U03307,Laxmi Nagar,28.6313,77.2789
1900,DC4052,Krishna Marg Kardam Puri,28.696783,77.28195
1901,DC4198,NHAI Building/ Dwarka Sec-10 Metro Station,28.579068,77.059118
1902,DC4590,Raksha Vigyan Kendra / Metcalf House,28.68341,77.22923
1903,U03421,Madanpur Khadar Crossing,28.52965,77.287933
1904,DC4490,S.Sr. Kanya Vidhyalaya,28.646696,76.955883
1905,U01181,Chhawani Hospital,28.59857,77.12434
1906,U02645,Statesman House,28.6306,77.2238
1907,U02093,Lado Sarai (Crossing),28.522833,77.19185
1908,U03812A,Mayur Vihar Ph-III,28.614033,77.33735
1909,U99829,Samalka Village,28.534183,77.090267
1910,U99743Z,Sheikh Sarai Ph-II,28.5336,77.232
1911,DC3910,BE Block Hari Nagar/ESI Dispensary,28.6274,77.121683
1912,U02532,Gandhi Vihar,28.7221,77.2161333333333
1913,U00920,Shahbad Dairy,28.7465,77.096
1915,U02633,Gopal Pur Crossing / Jagatpur Crossing,28.7196,77.2228
1916,DC3887,Pochan Pur Village,28.5589,77.043833
1917,U02397,Azad Market,28.6643,77.2081
1918,DC3595,ISBT Bridge,28.669383,77.229183
1919,U00303,Sir Chhotu Ram Polytechnic,28.70675,77.001217
1920,U00876,Janak Cinema,28.610936,77.093097
1921,U01081,Rohini Depot 1 Sec 6 (Ambedkar Hospital),28.7158,77.113983
1922,DC4467,Mundhela Kalan Village,28.609734,76.893466
1923,U02350,GTB Nagar,28.6982666666667,77.20665
1924,DC4075,Nathu Colony,28.689611,77.30123
1925,DC3681,Gazi Pur Dairy Farm,28.620867,77.32055
1926,U01343,Badli Railway Staion,28.7453,77.137333
1927,DC3635,Palam Airport Bypass,28.56955,77.123533
1928,U01252,Madhuban Chowk,28.7028,77.1302
1929,U03061,Rajdoot Hotel,28.5825,77.2527
1930,U03411,B R Ambedkar College (Loni Road Xing),28.7015,77.2882
1932,U01821,R K Puram Nab,28.56102,77.17573
1933,DC0018,Azad Pur Terminal,28.707535,77.178192
1934,DC0041,Sec-24 Rohini Main Road,28.727,77.0984
1935,U01458IP,Inderpuri Krishi Kunj,28.637749,77.146347
1936,U01603,Vasant Kunj Sec-D/3-4,28.5172,77.16075
1937,DC3992,Zafrabad School,28.683533,77.27525
1938,U01453,Samaypur School,28.743983,77.143
1939,U01965BN,Bharat Nagar Crossing/Sri Nagar Colony,28.681,77.1847
1940,U02675,Ravindra Nagar,28.598467,77.225
1941,U00361,Shiv Shankar Dharam Kanta,28.6837,77.0117
1942,U02258,IIT Gate,28.5462,77.2025
1943,U01055,Hari Nagar Ghanta Ghar,28.62455,77.11095
1944,U01513,Mukarba Chowk,28.732567,77.152
1945,DC0070,KrishiBhawan/RailBhawanMetroStation,28.615,77.2124
1946,DC3658,Daya Basti Flyover,28.6665,77.170033
1947,U00545,Aman Puri,28.673183,77.0597
1948,U01960,R K Puram Sec-3,28.5567,77.1845
1949,DC3804,Shahdara Terminal,28.6745,77.28685
1950,DC4450,Rishal Vihar,28.553617,76.992947
1952,U02628,Old Secretariat (Postal Account Office),28.6837833333333,77.22215
1953,U01491,Ram Pura,28.671883,77.153033
1954,DC4235,PS Vivek Vihar,28.666583,77.307017
1955,DC3932,Bodhik Sampda Bhawan,28.597833,77.026167
1956,U02880,Defence Colony (Lajpat Nagar Mtr Stn),28.573217,77.237783
1957,U02299,Dhakka Village,28.7087,77.2045
1958,DC4258,C6 B Janakpuri,28.613283,77.098533
1959,U01110,Engg College Shahbad,28.744933,77.117533
1960,DC3741,Sabhapur More,28.75015,77.243933
1961,U01625,Dhaula Kuan,28.592987,77.162867
1962,U02891,Gupta Market,28.565133,77.2397
1963,U01858,Andheria Bagh More,28.509433,77.17875
1964,U99808A,Madanpur Dabas,28.716406,77.02804
1965,U03564,Himalaya Apartment,28.6322,77.3047
1966,U03430,Hans Apartment,28.6582,77.29
1967,U02428,Begumpur,28.536933,77.209867
1968,U03770,DLF More,28.6929,77.3272
1969,U01532,Sanjay Gandhi Transport Nagar,28.7402,77.154
1970,U01511,Campa Cola,28.661933,77.1519
1971,U01633,Dhaula Kuan,28.598683,77.1632
1972,U00322,Desu Sub Station,28.7232166666667,77.0044833333333
1973,DC4215,Shalimar Bagh BH Block,28.71536,77.156967
1974,U02063,Kalyan Vihar Terminal,28.693735,77.199108
1975,U02809,Sheikh Sarai Phase 2,28.5325,77.2319
1976,U00627,Vikas Puri Crossing,28.626981,77.070541
1977,U02798PB,Pushpa Bhawan,28.527867,77.231317
1978,U03072Z,DB College,28.539117,77.253733
1979,DC4158,Chanakya Bhawan,28.583514,77.192146
1980,U02152,Burari Crossing,28.7285,77.197383
1981,U01853,Aradhana Enclave,28.574567,77.17855
1982,DC4384,Baprola School,28.638417,77.007883
1983,U01793,RK Puram Sec-12(Sangam Cinema),28.5736,77.1735
1984,U02286,Police Station Roop Nagar / Banglow Road,28.684821,77.203792
1985,U00679,Dholi Piao,28.629,77.076367
1986,U03007P,Indira Gandhi Stadium,28.6336,77.2469
1987,U02261,Guru Govind Singh Crossing (Faiz Road),28.653016,77.202409
1988,U00796,Budh Vihar,28.704333,77.086917
1989,U03342,Pusta Crossing / Akhardham Temple,28.6124,77.2823
1990,U02849,Yamuna Bazar / GGS Universicy,28.664783,77.235467
1991,U02564,Marina,28.6369,77.2185
1992,U01806,N.P.L Colony,28.6379,77.1744
1993,U03539,Kotla Village,28.6132,77.302
1995,U03321,Prem Nagar,28.5044,77.2793
1996,U03050,Kalkaji B-Block,28.5435,77.2515
1997,U02833,Kouria Bridge,28.6601,77.2344
1998,U03157,Rainy Well,28.6283,77.260633
1999,DC4238,PS Vivek Vihar,28.666733,77.307017
2000,DC3575,ISBT Bridge,28.669367,77.22855
2001,U03614,Telephone Exchange,28.676067,77.30925
2002,U02555,Claridges Hotel,28.602517,77.217783
2003,DC4261,Ramleela Ground Geeta Colony,28.654567,77.274817
2004,U02077,Laxmi Vihar,28.7600333333333,77.1910166666667
2005,U01318,Shastri Bazar,28.5965,77.1358
2006,DC4573,SDM Court Kanjhawala,28.740506,77.009554
2007,U03399,Sarita Vihar,28.53225,77.287133
2008,DC4112,Jheel Terminal,28.658667,77.272233
2009,DC4361,Ibrahim Pur More,28.775565,77.179417
2010,DC3969,Shri Golok Dham Bijwasan School,28.533517,77.059567
2011,U01079,Janak Setu,28.6107,77.1139
2012,U99876,Dariyapur Kalan School,28.8089833333333,77.0150333333333
2013,DC3724,Gurudwara Nanak Sar,28.710233,77.241367
2014,U01287,Naraina Vihar,28.625783,77.134167
2015,U00962,Mangol Puri B Block,28.69005,77.0965166666667
2016,U02004,Telephone Exchange,28.6971,77.1869
2017,U03004,Gandhi Darshan,28.636883,77.246683
2018,U01768,Vasant Vihar Depot,28.558333,77.17215
2019,U02748,Baroda House,28.617358,77.228653
2020,DC0090,Raghubir Nagar Gurudwara A Block,28.6553333333333,77.1135666666667
2021,U03364,Central Workshop II,28.516367,77.2836
2022,U03647,Dilshad Garden GT Road,28.675883,77.3118
2023,U00795,Chhath Park Mangol Puri,28.692583,77.086783
2024,U01305,Naraina Vihar / Indra Market,28.626883,77.135333
2025,U02302,Aurobindo College,28.5326,77.2046
2026,DC0101,Shreshtha Vihar,28.65945,77.318483
2027,DC4032,Radha Swami Satsang,28.620583,77.307117
2028,U02601,Banarsi Daas Estate Timarpur,28.697306,77.220577
2029,U03070,Jamia Hamdard Library,28.517133,77.253667
2030,DC3986,Hardev Puri,28.689357,77.295653
2032,U02636,Max Mueller Marg,28.596,77.2233
2033,DC4009,Ujwa School,28.570387,76.90719
2034,DC4527,Bawana Dispensary,28.800983,77.03726
2035,U01324,Mahindra Park,28.6834,77.136683
2036,U02461,INS Hostel,28.6962166666667,77.2116
2037,DC0135,Maharani Bagh (Ashram),28.574941,77.262217
2038,U00319,Kanjhawala Depot (Narela Road),28.726917,77.003117
2039,U00997,Rohini Sec-3/4 Xing,28.7062,77.103
2040,U03067,Jamia Hamdard Library,28.5172,77.2534
2041,U02029,Kaushik Enclave,28.761067,77.188617
2042,U02190,Faiz Road,28.6494,77.1987
2043,U02627,Mori Gate Terminal,28.666217,77.221928
2044,DC4487,CRPF Jharoda 1,28.634675,76.962955
2045,U02358,Ramjas College,28.68675,77.2067333333333
2046,U02475,SJ Airport,28.5841,77.2126
2048,U00879,P.Vihar Power Houe,28.6681,77.0929
2049,DC3598,Mahindra Park,28.7215333333333,77.166
2050,U02790,Mandi House,28.625035,77.230571
2052,U00834,Samalkha Village,28.534317,77.090233
2053,DC4401,Nangloi Post Office,28.679717,77.065867
2054,CWG77,Gandhi Darshan,28.636683,77.247283
2055,U02348,Roshnara Road,28.6673,77.2075
2056,U01769,East Patel Nagar,28.642967,77.17315
2057,U03134,Ashram (Hari Nagar),28.573367,77.257533
2058,U00527BP,IOC Dwarka Road,28.5443,77.0647
2059,DC4550,Munim Ji Ka Bagh,28.836163,77.092108
2060,DC3535,Ganesh Nagar Check Post,28.6341,77.089333
2061,U00590,Nangloi Post Office,28.679763,77.066169
2062,U00739,Mangolpuri S Block,28.692933,77.081933
2063,DC4221,Shalimar Bagh Desu Colony,28.718493,77.158537
2064,U02333,Gole Market,28.6352,77.2055
2065,U03237,Kalka Ji Crossing,28.5573,77.269767
2066,DC4072,GTB Hospital Crossing,28.68985,77.306733
2067,U01509,Arjun Path / Subroto Park,28.57409,77.151885
2068,U00155,Nanak Piyau,28.609183,76.967183
2069,U02310,Panchkuian Road Banwari Lal Hospital,28.64165,77.204717
2071,U03722,Kalyanpuri Crossing,28.6146,77.3213
2072,DC4464,Batla House (Temporary),28.562085,77.285799
2074,DC3926,A-1 Keshav Puram,28.683217,77.15435
2075,DC3707,ISBT Kashmere Gate Terminal,28.66696,77.227456
2076,U02688,Barakhamba Metro Station,28.6294,77.2253
2078,U02241,Karol Bagh Terminal,28.648,77.2009
2079,U02367,Rama Krishna Ashram Marg,28.6374,77.2071
2080,U03755,JandK Pocket Dilshad Garden,28.679333,77.324533
2081,U02595,Lodhi Garden / Mousam Bhawan,28.590317,77.220383
2082,U03657,Gagan Cinema (Wazirabad Road),28.6974,77.3148
2083,U01461,Arjun Path,28.574933,77.147383
2084,U03346,Jharkhandi,28.66785,77.28225
2085,U02587,Tolstoy Marg,28.6261,77.2207
2086,U03500,Karkardooma Xing,28.642867,77.29725
2087,DC0073,Inderlok,28.6708,77.1667
2088,U01657,Jahangirpuri A-Block,28.7285,77.1648
2089,DC0113,Nizamuddin Road Bridge,28.596717,77.256333
2090,DC3899,Narmada Apartments,28.527,77.252016
2092,DC3753,Chhoturam Park Rohini Sec 5,28.713132,77.109182
2093,DC3995,Seelampur Market,28.672919,77.269945
2094,DC3607,Mukarba Chowk,28.735,77.155967
2095,U03183,NSIC,28.551683,77.264017
2096,DC4118,Ramesh Park,28.635417,77.270017
2097,U02825,Central School (KV),28.5598,77.2336
2098,U01578,Golf Club,28.592867,77.158433
2099,U99785,Rasulpur Village,28.7065,77.028
2100,U01271,Basai Darapur / Ramesh Nagar,28.6528,77.1324
2101,U01056,Hari Nagar Clock Tower,28.6252,77.1108
2102,DC4187,The Uppal Hotel,28.536417,77.102067
2103,NS0183,New Usmanpur pusta no-1,28.6809,77.256
2104,DC4310,Kapil Vihar,28.699534,77.134953
2105,U00229,Chhawla Stand Najafgarh,28.6084,76.9853
2106,U01007,Meenakshi Garden,28.64025,77.103933
2107,U02248,Raj Nagar,28.5695,77.2014
2108,U01367,Vasant Kunj Sec-C-8,28.536733,77.140133
2109,U00755,Manohar Nagar,28.6421,77.0831
2110,CWG610,J L Nehru Stadium,28.583,77.2302
2111,U01540,Wazirpur Depot / Subhash Place Depot,28.6949,77.1548
2112,U00378,Kakrola Bridge,28.6201,77.024509
2113,DC4018,Jaffarpur RTRM Hospital,28.595133,76.915483
2114,DC4516,SDM Court Kanjhawala,28.74049,77.009481
2115,U02774,Andrews Ganj,28.565967,77.22965
2116,U03171,New Friends Colony,28.5667,77.2624
2117,DC4410,Khera Village,28.595558,76.964632
2118,U01980,IIT Hostel,28.550033,77.185633
2119,U99703,Punjab Kesari,28.6949,77.1548833333333
2120,U00542DS,Dhool Siras,28.553257,77.035022
2121,DC0098,Kushak Nallah Depot,28.579667,77.225283
2122,U02031,Palika Kutumb,28.6075,77.1887
2123,U02686,Old Delhi Railway Station,28.66035,77.226367
2125,DC4416,Dewta Wala mandir,28.548631,76.930603
2126,DC3730,Pusta No 3 Sonia Vihar,28.7256,77.244833
2127,U02168,Burari Transport Authourity,28.732241,77.198077
2128,U02857,Ishpat Bhawan,28.592517,77.2365
2129,U02392,Thana Sabji Mandi / Ice Factory,28.669033,77.207983
2130,U00805,Keshopur Depot,28.6535,77.088
2131,NS0198,Puspanjali G Block,28.541967,77.075267
2132,U03361,Lal Kuan,28.5023,77.2833
2133,DC4579,Karampura Terminal,28.660016,77.144475
2134,DC4247,Sikkim House,28.59955,77.184967
2135,U02559,National Museum,28.611817,77.218283
2136,DC4556,Kaushal Devi Netraheen Ashram,28.825389,77.069865
2137,U03387,Mother Dairy,28.6191,77.28625
2138,DC4702,Chandan Market Greater Kailash- II,28.531605,77.245826
2139,U01521,Wazirpur Depot Ring Road,28.691796,77.15339
2140,DC4055,C4 Yamuna Vihar Crossing,28.70045,77.283483
2141,U99959A,Delhi Jal Board Lajpat Nagar,28.57095,77.2466
2142,U00707,Vikaspuri J-Block,28.643391,77.079392
2143,U03638,Chand Cinema,28.61279,77.312844
2144,U01344,Kirti Nagar,28.655,77.1376
2145,U03351,Apollo Hospital,28.5396,77.2825
2146,U01590,C-8 Keshav Puram,28.689217,77.159333
2147,U02657,18-Block Lodhi Colony,28.58745,77.22405
2148,U02938,OS Communications,28.542817,77.2415
2149,U00285,Power House NajafGarh,28.6129333333333,76.9955666666667
2150,DC4493,Jharoda Kalan,28.655156,76.950098
2151,DC0128,Sanjay Lake Trilokpuri,28.62015,77.2955
2152,U02960,Batra Hospital (Satya Narayan Mandir),28.5121,77.2435
2153,U02983,Shanti Vana,28.64915,77.245583
2154,U03942,Tagore Garden Metro Station / Tatarpur,28.6442,77.1134
2155,U01113,Rangpuri,28.542533,77.117633
2156,U99988A,Tehkhand Depot DTC,28.51095,77.280917
2157,U02185,Nirankari Sarover- Burari Xing,28.7277166666667,77.1979
2158,U00897,Peera Garhi Chowk,28.6803,77.0944
2159,DC3647,Matiyala Xing,28.605083,77.0517
2160,U00299,Chhawla School,28.5664,77.0004
2161,U00417,NSIT (Netaji Subhas Institute),28.608217,77.035067
2162,DC4333,Goyla Dairy,28.579886,77.021759
2163,DC4164,IA Block Ashok Vihar,28.685883,77.17055
2164,U03297,Okhla Ph-I,28.5203,77.2777
2165,U03689,Jhilmil Xing,28.6761,77.3174
2166,U03499,Gagan Vihar,28.6451,77.2977
2167,U01037,Subhash Nagar Crossing / Mukherji Park,28.642283,77.10905
2168,U02800,Old Delhi Railway Station,28.658517,77.23155
2169,DC3670,Kamal Cinema,28.56527,77.198962
2170,U03731,Anand Gram Ashram,28.688417,77.319617
2171,U00708,Jwala Puri / Nangloi Depot,28.6812,77.078917
2172,U02815,Central School (Andews Ganj),28.5617,77.231883
2173,U03018,ITO Ring Road,28.629567,77.247833
2174,U03578,Ras Vihar Apartment (PS Madhu Vihar),28.6253,77.3057
2175,U99740,Pragati Maidan Metro Station,28.623433,77.240567
2176,U03668,Gazipur Village,28.6321,77.3161
2177,U03656,Anand Vihar ISBT,28.6483,77.3178
2178,U02892,Tilak Bridge,28.6255,77.2397
2179,U01925,Sarai Rohila,28.662417,77.1822
2180,U01665,West Patel Nagar,28.647504,77.164974
2181,DC4270,Khureji Khas,28.64655,77.279067
2182,U02376,Post Office,28.6738,77.2073
2183,U00251,BDO Office Roshan Pura,28.6008,76.9887
2184,U01698,Sarai Pipal Thala,28.7206,77.1671
2185,DC3972,Rewla Taj Pur More,28.577467,76.996717
2187,U02759,Baroda House,28.617221,77.228557
2188,U03205,Ishwar Nagar,28.5617,77.2664
2189,NS0600,Bobby Shop,28.6238,77.1188
2190,DC4035,Lal Bahadur Shashtri Hospital,28.6173,77.309633
2191,U02897,National Stadium,28.611683,77.239967
2192,U99933,Khel Gaon CWG Village,28.606154,77.274967
2193,U01092,Tagore Garden,28.644117,77.113683
2195,U01127,Base Hospital,28.5895,77.1198
2196,DC4250,PS Chankya Puri,28.603617,77.1966
2197,U00641,Oxford School,28.638,77.0719
2198,U01488,Telephone Exchange,28.6865,77.151
2199,U01673,Kanhaiya Nagar,28.6812,77.165533
2200,U01311,Pitampura RU-Block,28.7076666666667,77.1342333333333
2201,U00294,Chhawla School,28.566267,77.000283
2203,DC3916,Maya Enclave,28.6167666666667,77.1100833333333
2204,DC0125,Sanjay Lake Trilokpuri,28.6198,77.295283
2205,DC4576,Malik Pur Village,28.55245,76.9029
2206,U99642,Nangloi Metro Station,28.68225,77.06395
2207,DC0057,Gurudwara Rakab Ganj,28.619801,77.206282
2208,DC3938,Sector 17/18 More Dwarka,28.593583,77.033283
2209,U02115,Vinay Marg,28.5864,77.1937
2210,DC3958,Shakur Basti,28.6835,77.133917
2211,U00169,Tikri Village,28.6872666666667,76.9713666666667
2212,U01040,Lajwanti Garden (Nangal Rai),28.6119,77.1094
2213,U00984,Paschim Vihar Super Bazar (West Metro Station),28.6788666666667,77.10075
2214,U00476,Valmiki Hospital,28.775183,77.047367
2215,U02665,Minto Road Terminal,28.639417,77.223773
2216,U01506,Masood Pur Dairy,28.528323,77.149657
2217,U01596,DCM Chemical,28.664617,77.15805
2218,U02589,Khirki Village,28.52995,77.21805
2219,U09586,Daka Village,28.7068166666667,77.2047
2220,DC3624,Swaroop Nagar JJ Colony,28.75595,77.162667
2221,U03242,B-Block Yamuna Vihar,28.702917,77.269733
2222,U02169,Jharoda Dairy Crossing,28.734483,77.197717
2223,DC3836,CPRTI,28.6374333333333,77.1927833333333
2224,U00661,Gurudwara Vikaspuri,28.6387,77.0743
2225,U02842,GPO,28.6617166666667,77.2354
2226,U03596,GTB Hospital Xing,28.6893,77.3075
2227,U00931,Avantika Xing,28.6984666666667,77.0970166666667
2228,U03154E,Govindpuri Extn. Gali No. -16,28.531917,77.259
2229,U99783,Rajouri Garden Market,28.645283,77.126883
2230,DC4453,Purani Basti Rewla Tajpur,28.569612,76.977529
2231,U02458,BBM Cluster Depot,28.704317,77.211183
2232,U00714,Dwarka More,28.5925713073573,77.0800329276966
2233,DC4430,Jhul-Jhuli Crossing,28.535481,76.909753
2234,U00626,J M International School,28.59535,77.0701
2235,U02439,Malviya Nagar,28.5365,77.2097
2236,DC4373,Ranhola Village,28.65585,77.04055
2237,DC4124,Lalita Park,28.632,77.27065
2238,U02280,GTB Nagar,28.69845,77.2056833333333
2239,CWG992,Ramjas College,28.686481,77.207282
2240,U99836,Liberty Cinema,28.6598,77.1888
2241,U00442,Swarn Park,28.682183,77.040783
2242,U02107,Lado Sarai Dhaula Peer,28.522031,77.198507
2243,U02780,J L Nehru Stadium,28.583833,77.2299
2244,U03142,C-Block East of Kailash,28.56215,77.2582
2245,U03208,Taimur Nagar,28.5708,77.2667
2246,U01264,Shivaji Park,28.674967,77.131617
2247,U99874,Vasant Vihar F Block Poorvi Marg,28.560383,77.16135
2249,DC4201,Dwarka Sec-6/7,28.59126,77.069535
2250,U02793PV,Pushpa Bhawan,28.527,77.2312
2251,U03997A,Gupta Market,28.56485,77.239667
2252,U99913,YMCA Jai Singh Road,28.62635,77.2127
2253,DC4224,KarKarDooma Court,28.654383,77.299067
2254,U00085,Mitraon Village,28.607988,76.947338
2255,U01466,Naraina Depot,28.64905,77.1513
2256,U00313,Nangli Sakrawati,28.614715,77.004077
2257,U00192,Nazafgarh Terminal,28.614408,76.978097
2258,U01545,C-4 Keshav Puram,28.690117,77.155283
2260,DC4539,Narela Terminal,28.851944,77.088097
2262,U01772,Nimri Colony,28.68105,77.17585
2263,U03337,Kanti Nagar Extension,28.6708,77.2806
2264,DC3664,Sri Nagesh Garden,28.596667,77.140783
2265,DC3750,VaishaliEnclave / Kapil Vihar,28.6995166666667,77.1346833333333
2266,U01411,Shakurpur JJColony,28.6809666666667,77.1432
2267,DC3998,Rohini Sec 22 Terminal,28.718179,77.063949
2268,U02396,Paharganj Police Station,28.64615,77.208267
2269,U00298,Jai Vihar,28.631583,77.000417
2270,DC3790,E-2 Vasant Kunj,28.539183,77.13255
2271,U03506,Mithla Apartment Chandar Vihar,28.6329,77.2992
2272,U99738,Janakpuri C-1,28.6171,77.0787
2273,U01188,Saraswati Vihar C Block,28.700233,77.124867
2274,U03489,Ali Village,28.5156,77.2968
2276,U00613,J M International School,28.595933,77.069217
2277,U99968,Delhi Public School,28.598783,77.2406
2278,U00780,Mangla Puri Terminal,28.590099,77.086907
2279,DC4499,Baba Haridass Nagar,28.623892,76.970415
2280,DC4327,Taj Pur More,28.583311,77.011776
2282,U02456,Krishan Menon Marg,28.6051,77.2111
2283,U02997,Sant Nagar,28.552517,77.2462
2284,DC4476,Keshav Nagar Darshan Dham,28.784034,77.180227
2285,U01361,Pittampura AP-Block,28.7031,77.1395
2286,U02490,Mukharji Nagar Xing,28.709,77.2138
2287,DC3876,Nangloi Post Office,28.679883,77.066
2288,DC4264,Rashid Market,28.649633,77.278883
2289,U01420,Loha Mandi,28.6395,77.143933
2290,DC3727,Pusta No 2 Sonia Vihar,28.721517,77.243867
2291,U02159,Jharoda Dairy Xing,28.735,77.1973
2292,DC0027,Clock Tower,28.677617,77.201567
2293,U00766,C-2 Janakpuri,28.6219,77.0842
2294,U00004,S.K.V.Dhansa,28.5577,76.8625
2295,DC4413,Pandwala Crossing,28.573848,76.952387
2296,DC4562,Bawana Dispensary,28.800739,77.036954
2297,DC4021,Rawta Village,28.5234,76.8996
2298,U00069,Surehra Crossing,28.604417,76.9324
2299,U02000,Qutub Minar,28.5266,77.1867
2300,U02679,Ambedkar Nagar Terminal,28.515724,77.225641
2301,U00184,Khera More / Ghuman Hera Crossing,28.611483,76.975867
2302,U02357,Green Park/Metro Station,28.558583,77.206733
2303,U00293,Sai Baba Mandir (Nazafgarh),28.613433,76.998983
2304,U00865,Sunder Apartment,28.6661,77.0923
2305,U00810,C4E Janakpuri,28.616659,77.087976
2306,U00387,Kakrola More,28.619347,77.028577
2307,U00746,Prehladpur Village,28.751082,77.080931
2308,U02752,Sujan Singh Park,28.599233,77.228567
2309,U02653,DIPSAR College of Pharmacy,28.5161,77.22485
2310,U00694,Janakpuri C-1,28.6172,77.0785
2311,U01189,Mahipal Pur Crossing,28.546733,77.125
2312,U03623,Hasanpur Village,28.636133,77.310567
2313,U02582,Uday Park,28.5591,77.2193
2314,U01337,Punjabi Bagh Terminal,28.66935,77.1374
2315,U03225,Kalkaji Xing,28.55795,77.26895
2316,DC0050,Police Station Timarpur,28.70745,77.2244166666667
2317,U02867,Defence Colony,28.573,77.237367
2318,U03497,ITI Khichiripur,28.6128,77.2976
2319,U01326,Wood Market,28.6393,77.1337
2320,U02668,Max Mueller Bhawan,28.6245,77.2246
2321,U03767,DLF More,28.6931,77.3274
2322,U00198,Nazafgarh Dhansa More,28.6115,76.9789
2323,DC4536,New Anaj Mandi Xing,28.842683,77.088691
2324,U00866,Rohini Sec-24,28.7282,77.0923
2325,DC4436,Dichau Village,28.639866,76.984045
2326,DC4244,South Enclave,28.610117,77.19915
2327,U02745,Metcalfe House,28.6808,77.2276
2328,DC0004,Hanuman Mandir,28.63035,77.21405
2329,DC4390,BrahmPuri Colony,28.652383,77.0325
2330,DC4144,Cargo / Express Terminal Gate,28.555167,77.0999
2331,U03544,Jaitpur Mor,28.49805,77.302217
2333,U01356A,S O Flats Carriappa Marg/Carriappa Vihar,28.6003,77.139767
2334,DC3975,M Block Greater Kailash- II,28.534662,77.243609
2335,U00525,Rajapuri,28.6038,77.055083
2336,U01228,Bali Nagar,28.6523,77.129183
2337,U02111,Rana Pratap Bagh,28.6890333333333,77.1930833333333
2338,U02781,Zakir Husain College,28.64115,77.230067
2339,U02443,Khel Gaon,28.55005,77.210417
2340,U02864,Red Fort,28.6582,77.2368
2341,U03477,Ashok Nagar,28.7002,77.296933
2342,U01527,C-2 Keshav Puram,28.687474,77.154082
2343,U01790,Shastri Nagar Shiv Mandir,28.6716,77.173
2344,U00263,Deenpur Village,28.5933,76.992
2345,DC3687,Shaheen Bagh Thokar No. 7,28.550612,77.301945
2346,U01034,Avtar Enclave,28.677283,77.111967
2347,DC3773,Jag Jivan Ram Hospital,28.7355,77.173983
2348,U01377,Haider Pur Water Works,28.721333,77.140683
2349,U00433,Mubarakpur Dabas,28.711117,77.037917
2350,DC4559,Jain Bekhunth Mandir,28.811877,77.054111
2351,DC3581,Pusta No-2,28.68365,77.255017
2352,U00388MB,Bamnoli Crossing,28.5392,77.029405
2353,U02410,Hansraj College / Malka Ganj,28.6785,77.2088
2354,DC4267,Radhu Palace,28.6367,77.28545
2355,U99983A,Telephone Exchange Karol Bagh,28.643211,77.182029
2356,DC3541,Dwarka More Metro Station (Sewak Park),28.619281,77.033966
2357,U02085,Africa Avenue,28.569183,77.191283
2358,U00271,FCI Ghevra,28.6927,76.9938
2359,DC0140,Crown Plaza,28.52945,77.271033
2360,U02742,Sujan Singh Park,28.599217,77.2284
2361,U01415,Punjabi Bagh Terminal (Rohtak Road),28.673333,77.143967
2363,DC4038,Mayur Vihar Phase II,28.619917,77.305311
2364,DC0054,Ekta Garden- Harijan Basti,28.7555,77.1983
2366,U02409,Chitra Gupta Road,28.641,77.2086
2367,U02269,Race Course,28.5964,77.2029
2368,U0290R,ITPO Gate No. 3,28.615417,77.240367
2369,U02743,Modern School,28.6278,77.2283
2370,U03669,Sunder Nagri,28.6929,77.3159
2371,DC3796,Natthupura Crossing Terminal,28.768883,77.180783
2372,DC4184,Dwarka Sec-21 Metro Station,28.551806,77.05647
2373,U03182,Govind Puri Metro Station,28.545117,77.263917
2374,U01604,Outer Ring Road Makbara Chowk,28.737233,77.160283
2375,DC3710,Nangloi JJ Colony Lokesh Cinema,28.682085,77.058786
2376,U00207,Tikri Piyau / Azad Hind Gram,28.68645,76.981183
2377,DC3604,Swaroop Nagar GT Road,28.75805,77.14765
2378,U02945,Gurudwara NanakSar,28.708917,77.242033
2379,U00466,Rama Vihar,28.7288,77.0456
2380,U03378,Ganesh Nagar,28.62085,77.285167
2381,DC3952,West Enclave Terminal,28.691467,77.10095
2382,U99854,Okhla Extension (Abul Fazl Encalve),28.54651,77.307126
2383,U03220,Okhla Industrial Area,28.5333,77.2687
2384,U03115,DDA Flats Kalkaji,28.528194,77.256102
2385,U03008,Raj Ghat,28.6415,77.2467
2386,U00591,Begumpur,28.7217,77.06495
2388,U02378,Azad Market,28.6632,77.2072
2389,U01822KP,Kewal Park,28.7137,77.1802
2390,U99872,Prithviraj Road/P.S.Tughlaq road,28.5987,77.2113
2391,U00981,Paschim Vihar Super Bazar (West Metro Station),28.6787166666667,77.1005
2392,U02237RN,R Block Rajinder Nagar,28.62339,77.18004
2393,U01011,Tihar Jail,28.6192,77.1046
2394,U00254,Durga Vihar,28.5965,76.9902
2395,U00934,Avantika Xing,28.6982,77.097
2396,U02698,Ludlow Castle,28.6723333333333,77.2258666666667
2397,DC4207,Ashok Vihar B Block,28.696159,77.170682
2398,U03789,Shalimar Garden More,28.688183,77.330183
2399,U01100,Gulab House,28.622267,77.1171
2400,U01924,RK Puram Sec-12,28.5705,77.1826
2401,DC4015,Rawta Village,28.523317,76.899633
2402,DC3627,Suraj Vihar,28.613083,77.033483
2403,DC4121,Laxmi Narayan Temple,28.63365,77.200033
2404,DC3733,Sonia Vihar,28.7324,77.246317
2405,U02183,Sarvodhya Vidhyalay Burari,28.749,77.1985
2406,U01823,Andheria More (Chhatarpur Metro Station),28.508067,77.175883
2407,DC0093,JLN Stadium (Sunehripulla Depot),28.591939,77.232191
2408,U03041,Lajpat Nagar Crossing,28.564183,77.250367
2409,U02039,Palika Kutumb,28.6078,77.1891
2411,DC4513,Jharoda Border,28.659049,76.947428
2412,U02925,Darya Ganj,28.647212,77.2404
2413,U99775,Shalimar Bagh Xing,28.7088,77.175
2414,U02412,Press Enclave,28.5282,77.2091
2415,U01472,Moti Nagar Industrial Area,28.657317,77.1485
2416,U02517,Tees Hazari Court,28.666767,77.21915
2417,NS0265,Delhi Public School,28.5989,77.240867
2419,DC4227,KarKarDooma Court,28.6543,77.299583
2422,NS0255,Kirbi Place,28.604867,77.12825
2423,DC4058,Babarpur Extension,28.691292,77.279214
2424,U00892,Mangol Pur Khurd,28.700133,77.094333
2425,DC3747,Shiv vihar/Bheem chowk,28.73345,77.02515
2426,U03110,Nehru Place Terminal,28.548617,77.2567
2428,U02289,Saket A block(Malviya Nagar Metro Station),28.5278,77.2052
2429,U01233,ESI Hospital,28.658433,77.128633
2430,U02810,Chirag Delhi,28.54083955,77.2323300221107
2431,U03235,Kaya Maya Hospital,28.507933,77.26915
2432,DC4473,Mundhela Khurd School,28.616097,76.896646
2433,DC4496,PTS Jharoda Kalan,28.642875,76.958266
2434,DC3955,MTNL Saraswati Vihar,28.687983,77.114367
2435,U00618,Rohini Sec-21,28.7187,77.0696
2436,U03362,Central Work Shop II,28.5164,77.2835
2437,DC3935,Dwarka Sec 16C/GGS IP University,28.595307,77.021997
2438,U99974A,PS Tuglak Road,28.599917,77.211317
2439,U00330,BSF Camp Chhawla,28.5536,77.0067
2440,DC4330,St Thomas School Goyla Vihar,28.581816,77.015072
2441,DC3667,North Point (Nursing Home),28.5428,77.2189
2442,DC3644,Palam Colony Flyover,28.533817,77.091417
2443,U01240,Bali Nagar,28.6519,77.1289
2444,U02237RRN,R Block Rajinder Nagar,28.6234,77.1803166666667
2445,U01893,Bharat Nagar,28.6806,77.1805
2446,U99919A,Humayun Road,28.602867,77.22785
2447,U02420,Sewa Kutir,28.702162,77.209581
2448,U01358,Prasant Vihar,28.716717,77.139417
2449,U00651,Jivan park,28.62,77.0733
2450,U00001,Dhansa Border,28.5625,76.8425
2451,U02678,Civil Line Metro Station,28.6766,77.2250166666667
2452,U03062,PG DAV College / Sri Niwaspuri,28.5674,77.252883
2453,U03221,PWD Office,28.6039,77.2688
2454,U99813A,Rani Khera,28.7042,77.0279
2455,U02451,Patel Chowk,28.6243,77.211
2456,U01937,Sarai Rohilla,28.662572,77.182259
2457,U00853,Janak Puri B-1 Terminal,28.629783,77.091517
2458,U03591,Balco Apartment,28.62985,77.306917
2459,U01497,Naraina Depot,28.6487,77.1512
2460,U01097,Gulab House,28.622383,77.117417
2461,DC3873,Nirmal Vihar,28.625313,76.992612
2462,U02266,Talkatora Road,28.6226,77.2028
2463,U01002,Pal Colony,28.7236,77.1037
2464,U02383,Maidan Garhi Crossing (SDM Court),28.51955,77.2078
2465,U03747,Shadhara Bordar Road No 62,28.677783,77.323267
2466,U03823,CRPF Camp,28.611517,77.3399
2467,U01365,Vasant Kunj Sec-C-8,28.536717,77.139933
2468,DC3919,Rajeev Ratan Aawas/Baprola Phase 1,28.645033,77.020333
2469,DC3896,Savitri Cinema (E Block Gurudwara),28.539883,77.2402
2470,U01510A,RR Hospital,28.590067,77.155817
2471,U01699,Sarai Peepal Thala,28.720417,77.166983
2472,U01194,"Rohini Sec-7,8 Xing",28.708,77.125
2473,DC3856,Krishna Colony,28.743833,77.08545
2474,DC0077,Don Bosco School,28.528046,77.247943
2475,DC3810,Rajghat Cluster Depot,28.643983,77.2526
2476,U02279,Panchsheel Club / Sarvpriya Vihar,28.5439,77.2052
2477,U99833,Punjabi Bagh Terminal,28.6758,77.1411
2478,U02913,Sunder Nagar,28.6022,77.240417
2479,DC0047,B-5 Rohini Som Bazar,28.7138,77.105
2480,DC4433,Dichau Kalan School,28.642517,76.986424
2481,U01208,Kirbi Place,28.6051,77.1269
2482,U02122,Alpana Cinema (Model Town Mtr Stn),28.703,77.1937
2483,U02478,Aakashwani Bhawan,28.62045,77.212633
2485,U02399,Patel Chest,28.6923,77.2084
2486,U99861,R R Line,28.60385,77.155433
2488,DC0007,Shiv Vihar Bheem Chowk,28.7333,77.025
2489,U03469,JagatpuriF-Block,28.648333,77.294949
2490,DC4307,DTC Apartments,28.697677,77.133852
2491,U00665,Sultanpuri Terminal,28.70345,77.075067
2492,DC0131,Gazipur NH-24 Crossing,28.630367,77.316333
2493,U02050,Koushik Enclave,28.761167,77.188717
2494,U03196,NSIC,28.553683,77.265133
2495,U00439,MRV School Sec 13 Dwarka,28.603917,77.0389
2496,DC3978,Madarsa / Welcome Seelam Pur,28.6783,77.272583
2497,DC4519,Prem Piyau,28.766575,77.016467
2498,U02852,OS Communication / Masjid Moth,28.54045,77.235833
2499,U00135,Sarvodya Kanya Vidhyalaya / PVC Market,28.687736,76.965578
2500,U02674,Andrews Ganj Shiv Mandir / Ansal Plaza,28.565333,77.224667
2501,U00518,Karala Pathsala Jain Mandir,28.730783,77.039667
2502,U00423,Bawana School,28.79615,77.0357
2503,DC3770,Badli Telephone Exchange,28.744717,77.13265
2504,U02088,Gurudwara Nanak Pyau,28.691,77.192
2505,U00116,Indra Service Station,28.608833,76.960017
2506,DC4456,Pandwala Crossing,28.558043,76.974025
2507,U02699A,Old Delhi Railway Station (Fatehpuri),28.66035,77.224933
2508,U01792,Munirka Family Planning,28.557,77.1746
2509,U00758,Prehladpur Crossing,28.749247,77.084662
2512,U02821,Khanpur Extension / Devli Xing,28.5141,77.233
2513,U01722,R K Puram Sec 8 / 9,28.571864,77.16973
2514,DC101,Ghevra Crossing Rohtak Road,28.68525,76.9943
2515,U01646,Zakhira,28.667383,77.1642
2516,U01811,NPL Colony,28.63725,77.17465
2517,DC4370,Nilothi Crossing,28.664883,77.053183
2518,U01030,Shahbad School,28.745617,77.10735
2520,U03219,C-Lal Chowk,28.534033,77.268667
2521,DC3987,Jyoti Colony Durga Puri,28.689258,77.291642
2522,U01336,Punjabi Bagh Terminal,28.667917,77.137317
2523,U99610,DesuOffice(NDPL),28.7326,77.0284
2525,DC3942,Mayur Vihar Phase III Terminal / Paper Market,28.617233,77.339567
2526,DC4110,Vasant Vihar,28.562767,77.167967
2528,DC3653,CGO Complex,28.587958,77.233541
2529,U01052,Maya Enclave BSES Office,28.620483,77.110683
2530,DC3845,Karol Bagh Gurgaon Stand,28.643833,77.1969
2531,U01631,Shanti Niketan / RK Puram Sec 8,28.573033,77.1634
2532,U02562,National Muesum,28.6111,77.218383
2533,DC3699,Meera Bagh Apartment,28.658267,77.090867
2534,U02141,Ashoka Hotel,28.5941,77.1962
2535,U03224,Kaya Maya Hospital,28.50825,77.269017
2536,U02161,Faiz Road,28.6495,77.1981
2537,U02961,ITO,28.627883,77.24335
2538,U00479,Ranhola Extension,28.658483,77.043817
2539,U01808,East Patel Nagar,28.6404,77.1744
2540,U03103,Garhi Maidu,28.6999,77.2554
2541,U02504,Vishwa Vidyalaya Metro Station,28.695193,77.214053
2542,U03407,Patparganj Xing,28.6164,77.2881
2543,U03628,Bank Colony,28.6983,77.311
2544,U01975,Sarai Rohilla Govt Qtrs,28.6613,77.18515
2545,DC4379,Tilang Pur Kotla,28.648467,77.02535
2546,U02523,Shivaji Stadium Terminal,28.632467,77.21565
2547,DC3530,Kair Village,28.6232,76.920617
2548,U01096,More Lines,28.583117,77.116617
2549,U03069,Alaknanda Apartment,28.525606,77.253226
2550,DC4210,Shalimar Bagh A Block,28.704718,77.169703
2551,U02839,GPO,28.661933,77.234583
2553,DC3630,Dwarka Flyover,28.58395,77.091533
2554,U01004,D-Block Janakpuri,28.611,77.1036
2555,DC4708,Raghu Nagar (Janak Puri),28.61173,77.090236
2556,U00290,Ghevra Village,28.6965,76.9979
2557,U02419,Gurudwara Bangla Sahib,28.625367,77.209583
2559,U03735,Anand Gram,28.68885,77.3219
2560,U00818,C4E Janakpuri,28.617217,77.088345
2561,U00011,AIR Force Camp,28.5633,76.8717
2562,U02772,Pushp Vihar,28.5248,77.230117
2563,U00487,Poothkhurd Village,28.772383,77.048967
2564,DC4462,Chhawla Village Kangan Heri Road,28.561281,77.001954
2565,U01203,Sri Krishan Apartments,28.7437,77.1261
2566,DC4485,New Anaj Mandi,28.619334,76.973808
2567,U01160,Sadar Bazar,28.595,77.1226
2568,U00629,Budhela Village,28.6352,77.0707
2569,U02296,Radio Colony,28.712,77.2042666666667
2570,U01940,Subhadra Colony,28.6712,77.18405
2571,U01672,Zakhira Flyover,28.668467,77.165383
2572,U01913,RK Puram Sec-13,28.571367,77.181783
2573,U02558,DDA Flats Lucknow Road,28.700902,77.218632
2574,DC0082,Panchsheel Enclave,28.5431,77.2128
2575,U03406,Batla House,28.5647,77.288
2576,DC107,Shaheen Bagh Thokar No 6,28.552383,77.3
2577,NS0323,Ashok Vihar Water Tank,28.689033,77.175067
2578,U02060,T.B. Hospital,28.5284,77.1901
2579,U01606,Vasant Village,28.574967,77.160167
2580,U01855,Azadpur Terminal,28.707944,77.177858
2581,U00773,Janakpuri East Metro Station/ Nangli Zalib,28.6323,77.08465
2582,DC4293,Samrat Enclave,28.684979,77.140643
2583,DC4631,St Marry School,28.573585,77.048615
2584,U02622,Scindia House / Kailash Bhawan,28.62915,77.221833
2585,U00953,Desu Colony,28.611,77.098783
2586,DC4439,Dichau Chowk,28.61755,76.983604
2587,U02138,Gur Mandi,28.6848,77.1963
2588,U01383,Pitam Pura KD Block,28.700383,77.141117
2589,U01442,St. Martin School,28.596667,77.1454
2590,DC3862,Mubarakpur School,28.712124,77.034153
2591,U03636,Jhilmil Crossing / Dilshad Garden GT Road,28.67615,77.311883
2592,U99658,Madanpur Dabas,28.7164,77.0282
2594,U03538,Jaitpur Crossing,28.496767,77.302417
2595,DC4548,Harish Chandra Hospital,28.840806,77.102022
2596,U01936,Anand Parvat Terminal,28.657883,77.183367
2597,U01663,West Patel Nagar,28.64795,77.164783
2598,DC3839,Blood Bank,28.58705,77.118483
2599,U02680,Lodhi Estate Xing,28.590633,77.2247
2600,DC4525,Primary School,28.797763,77.034409
2601,U03114,Tara Apartment,28.5241,77.2562
2602,U02540,Saket Crossing,28.5176,77.216583
2603,U03145,DDA Flats Kalkaji Market,28.5304,77.2584
2604,U00519,Kirari Nahar,28.698707,77.053597
2605,DC4027,Jaffarpur RTRM Hospital,28.594767,76.915233
2606,U02295,Panchkuian Road Banwai Lal Hospital,28.6417,77.2042
2607,NS0308,Social works school,28.6935,77.2173
2608,DC3882,Bamnoli More,28.53961,77.029765
2609,U99946,Patel Chest,28.6923,77.2083
2610,U02329,Gole Market (Sahitya Sadan),28.6289,77.2053
2611,DC4070,Sir Ganga Ram Hospital,28.639119,77.188024
2612,DC4296,Rajdhani Enclave / Mahindra Park,28.68344,77.136724
2613,U03597,Jagriti Enclave,28.6528,77.3077
2614,DC4319,Chaukhandi,28.64704,77.09582
2615,U99949S,Keshav Mahavidhyalaya,28.686952,77.120114
2617,U01903,Azadpur Metro station,28.7072833333333,77.18085
2618,U03394,Swaran Cinema,28.6636,77.285933
2619,U02768,Sewa Nagar Flyover,28.578783,77.2293
2620,U03135,DDA Flats KalkaJi,28.528315,77.257817
2621,DC4273,Pandit Park Geeta Colony,28.654883,77.276617
2622,DC0119,Power House,28.50715,77.300283
2623,U01199,Saraswati  Vihar C Block,28.700133,77.12525
2624,U00434,Mubarakpur Dabas,28.7112,77.0382
2625,U99790,Bake Vihar,28.7095,77.028
2626,U03064,Nizamuddin Railway Station,28.586388,77.253259
2627,DC104,Tagore Garden,28.6469,77.117483
2628,U40001A,Vijaya Laxmi Apartment,28.6288,77.3089
2629,U01216,Government Press,28.634183,77.127517
2631,U03020,Shyam Giri Mandir,28.67385,77.248
2632,U01800,Munirka Village,28.5585,77.173717
2633,U03488,Ali Village,28.5153,77.2967
2634,DC3713,GTB Nagar / Haqiqat Nagar,28.699167,77.20805
2635,DC0013,Satya Niketan Dhaula Kuan,28.5880455,77.1704594
2636,U00918,Tilak Nagar,28.6363,77.0957
2637,U02069,Jia Sarai,28.5483,77.189083
2638,DC3759,RK Puram Sec 1-4,28.562933,77.178467
2639,U01204,Shri Krishna Apartments,28.74395,77.126267
2640,U02526,Kalma Nehru College,28.5564,77.2158
2641,U02855,Supreme Court,28.61975,77.236333
2643,U03710,Ram Prastha Crossing,28.660717,77.319917
2644,DC3885,Dwarka Sec 21 Crossing Bharthal Chowk,28.554623,77.051168
2645,DC4545,Sec A-9 Narela,28.854546,77.097907
2646,DC4522,Krishna Vihar,28.789732,77.027956
2647,U00504,Rishal Garden,28.661623,77.048814
2648,U03802,Bharti Public School,28.606133,77.333967
2649,DC3908,BE Block Hari Nagar/ESI Dispensary,28.62755,77.1216
2650,DC0010,Rithala Crossing (Rohini Sec 6 Crossing),28.711648,77.107233
2651,U01605,Vasant Kunj Sec-D/3-4,28.5168,77.161517
2652,DC3859,Prehlad Vihar (Deep Vihar),28.734967,77.087333
2653,U01388,Moti Nagar Market,28.6568,77.140833
2654,U01353,Uttri Pitam Pura,28.713617,77.1389
2655,U01988,Railway Museum,28.5872,77.1856
2656,U00286,Dichau Kalan Depot,28.628745,76.997357
2657,U00874,Tilak Nagar Xing,28.6357,77.09295
2658,U01654,CPWD Colony Vasant Vihar,28.554792,77.164694
2659,U02283,PS Mandir Marg,28.638783,77.20345
2660,U00912,E Block Mangol Puri,28.695733,77.0955
2661,U02492,PS Parliament / Jantar Mantar,28.625607,77.214431
2662,DC3981,Babar Pur Ext,28.69085,77.279567
2663,U01492,Netaji Subhash Palace,28.6938,77.151
2664,DC0036,Rohini Sec 23 Pkt 1 (Green Hill Aptt.),28.719083,77.084283
2665,U00019,Bakkar Garh Xing,28.5927,76.8862
2666,DC4422,Hasanpur Village,28.556573,76.936719
2667,U02551,Social Works School,28.6934,77.2174
2668,DC3736,Check Post,28.73905,77.247483
2669,U01414,PS Kirti Nagar,28.646715,77.1409
2670,U03040,Pragati Power Station,28.616,77.2501
2671,DC4216,Shalimar Bagh BA Block,28.708611,77.161601
2672,DC3679,IP Power House / ITO Ring Road,28.624067,77.247683
2673,DC4130,Jheel Terminal,28.658591,77.272188
2674,U00421,Bawana,28.800222,77.035528
2675,U02327,Radio Colony,28.7112333333333,77.2045
2676,U01289,Pitampura RU-Block Power House,28.7078,77.1343
2677,U01250,Maya Puri Crossing Ring Road,28.638517,77.129833
2678,U02040,Chowki No 2 / Gulabi Bagh Crossing,28.677233,77.188967
2679,U03594,Hassanpur Depot,28.636183,77.307233
2681,U01736,Daya Basti Flyover,28.666824,77.16936
2682,U03098,Pusta No-2,28.683767,77.255217
2683,DC3593,Shastri Park,28.672867,77.253967
2684,U03485,New Rajdhani Enclave,28.64215,77.29625
2685,U02834,Khanpur Extension / Devli Xing,28.514,77.2344
2686,DC4107,RK Khanna Tennis Stadium,28.558217,77.186983
2688,DC3547,Khera More / Ghuman Hera Crossing,28.611152,76.97521
2689,U03104,Air Force Station,28.511683,77.255467
2690,DC4445,Daulat Pur Crossing,28.54352,76.97052
2691,U01373,Barar Square,28.607383,77.141767
2692,DC3656,Exchange Store/Civil line metro Station,28.676617,77.225033
2693,U02326,Hauz Khas,28.5529,77.2051
2694,DC4193,Dwarka Sec-6 Telephone Exchange,28.593125,77.071251
2695,DC3719,Hanuman Mandir,28.630267,77.214133
2696,DC3696,J Block Vikas Puri,28.63955,77.0792
2697,U00765,Krishna Vihar,28.70965,77.081117
2698,U03106,East of Kailash B-Block,28.561917,77.255567
2699,U01084,Ordinance Depot,28.677133,77.115017
2700,DC4233,Vivekanand Mahila College,28.665367,77.314167
2701,DC4256,C6 B Janakpuri,28.613317,77.098433
2702,U00831,Mangol Puri Y Block,28.7029,77.08951
2703,U01208A,Kirbi Place,28.60535,77.126367
2704,U00311,Haryana Shakti School Kanjhawala,28.7133,77.003233
2705,DC3633,Indian Oil Station,28.577583,77.108783
2706,U02403,Malviya Nagar,28.5356,77.2085
2707,U02762,Pushp Vihar,28.5247,77.230317
2708,DC3782,Kalkaji Extension Pocket A-13,28.527083,77.266983
2709,U03306,C 4 Yamuna Vihar,28.702383,77.278633
2710,U01750,Satya Niketan,28.587833,77.170333
2711,U00315HV,Harewali Gaon,28.8309166666667,77.0073666666667
2712,U03019,Shyam Giri Mandir,28.674167,77.247633
2713,U01947,Hyatt Hotel (GAIL),28.5698,77.186
2714,U02375,Gurudwara Rakab Ganj Road,28.6209,77.2073
2715,U00614,Sultanpuri Crossing,28.682,77.069317
2716,U02349,Kendriya Terminal (Pt. Pant Marg),28.6214,77.2064
2717,U03199,Taimur Nagar,28.5726,77.2659
2718,U02372,Panchkuian Road,28.640283,77.206933
2719,U00951,B-Block Mangolpuri,28.68955,77.0968
2720,U00863,C-3 Janakpuri,28.61525,77.092367
2721,U00905,B-Block Mangolpuri,28.6881,77.0951
2722,U03410,Mother Dairy Crossing,28.619333,77.288317
2723,U00939,Janakpuri C-5A,28.6148,77.0977
2724,U03470,Govt Model School / Ambedkar Park,28.621767,77.295083
2726,U01751,Wazirpur JJ Colony,28.68205,77.170067
2727,U03044,Nehru Place Crossing/Paras Cinema,28.5453,77.2505
2728,U01575,Shadipur DTC Colony Metro Station,28.6512,77.1585
2729,U02746,Ambedkar Nagar Depot,28.5151,77.2286
2730,DC4528,Dsidc Bawana,28.803483,77.042779
2731,DC4336,Jhankar Crossing,28.57905,77.024348
2732,U02467,INS Hostel,28.6961333333333,77.2122666666667
2733,U01778,Moti bagh Gurudwara Nanakpura,28.584567,77.172767
2734,DC4482,Keshav Kunj / Pochan Pur Crossing,28.55692,77.05308
2735,U02035,Mohammadpur Village,28.564883,77.188917
2736,U01212,Fire Station Sec-8,28.7069,77.1272
2737,U01849,Moti Bagh 1,28.58,77.1786
2738,U00673,Dholi Piao,28.6289,77.0757
2739,U02214,Sarvodhya Vidhyalay Burari,28.7492333333333,77.1985666666667
2740,U01133,Rohini Sec-9,28.7117,77.1203
2741,U02907,Pragati Maidan Gate No. 5,28.618483,77.240183
2742,U00990,Hari Nagar Depot,28.625133,77.102067
2743,U01439,St. Martin School,28.5965666666667,77.1454666666667
2744,U99807A,Desu Office (NDPL),28.7327,77.0285
2745,U02127,Tibiya College,28.6576,77.1949
2746,U01008,Janakpuri D Block,28.6078,77.1039
2747,U02322,Kendriya Terminal / Gurudwara Rakab Gunj,28.621017,77.205283
2748,U02940,Kailash Colony,28.5561,77.2411
2749,U01691,Pusa Quarters,28.63,77.1667
2750,DC4236,Satyam Enclave / Jhilmil DDA Flats,28.66655,77.304667
2751,U01818,Rajender Nagar,28.6407,77.176217
2752,DC3550,Bhagini Nivedita College,28.617883,76.9312
2753,U03153,L Block Gurudwara Kalkaji,28.54004,77.258381
2755,U03206,Kalkaji Depot,28.5375,77.2674
2756,DC3842,Kendriya Vidhyalaya,28.58943,77.11972
2757,U03562,Himalaya Apartment,28.6322,77.3043
2758,U01356CV,S O Flats Carriappa Marg,28.600317,77.139733
2759,U01369,Barar Square,28.610017,77.139017
2761,U00158,Nanak Piyau,28.609467,76.967767
2762,DC4459,Pandwala Village,28.565684,76.962971
2763,U00617,Vikaspuri Crossing (Shivaji Marg),28.626317,77.069689
2764,DC4067,Janki Devi College,28.641581,77.190017
2765,U99610A,Desu Office,28.7328,77.0278
2766,DC4167,CGHS Dispensary,28.645083,77.209483
2767,DC3779,Indra Kalyan Vihar,28.523383,77.27525
2768,U01165,Metal Forging,28.62945,77.123433
2769,U02570,New Delhi Railway Station Gate 1,28.6415,77.218517
2770,U03033,Hamdard Nagar / Sangam Vihar,28.512167,77.248667
2771,DC4153,Sarojini Nagar Depot,28.574858,77.189833
2772,U00416,NSIT (Netaji Subhas Institute) / Sulahkul Mandir,28.607617,77.035033
2773,U01620,NASC Dasghara,28.6254,77.1622
2774,DC3961,Haryana Pottries,28.5383,77.035183
2775,U00202,Jharoda Crossing/Nazafgarh Terminal,28.61325,76.979833
2776,DC4007,Bhogal (Jungpura),28.584883,77.249733
2777,DC4230,Vivek Vihar ITI,28.670583,77.3159
2778,DC3984,Jyoti Colony Durga Puri,28.68945,77.291517
2779,U03688,ISBT Anand Vihar,28.6457,77.3172
2780,U01496,Inderpuri A-Block,28.6288,77.1512833333333
2781,U03293,Laxmi Nagar / Shakarpur Crossing,28.6297,77.277067
2782,U02245,New Police Lines,28.6992,77.2033
2783,U99883,Surya Nagar,28.666383,77.321567
2784,U01460,Arjun Path,28.575267,77.147183
2785,U03474,Pocket-5 Mayur Vihar Ph-1,28.6133,77.2956
2786,DC0134,DDA Flats Kalkaji,28.528442,77.255736
2787,DC3756,Vasant Vihar F Block Poorvi Marg,28.560417,77.1611
2788,U02934,ITO (Agarwal Chowk),28.628867,77.24115
2789,U00372,Radha Swami Satsang / Rupali Enclave,28.733977,77.020936
2790,U01063,Beriwala Bagh,28.63145,77.111967
2792,DC4568,Bajit Pur Xing,28.784696,77.024034
2793,U03822,CRPF Camp,28.611833,77.339833
2794,DC4376,BrahmPuri Colony,28.652233,77.032533
2795,DC4399,Aman Puri,28.67305,77.059667
2796,U01322,Pitampura RU-Block,28.7078,77.1364
2797,U02487,AIIMS,28.568983,77.213433
2798,U01276,Madhuban Chowk PP Metro Stn,28.70285,77.13305
2799,U02873,Golf Club,28.601733,77.237817
2800,NS0408,Mundhela Crossing,28.597435,76.895722
2801,DC4313,Udaseen Ashram,28.621649,76.988196
2802,U02719,Old Delhi Railway Station,28.660302,77.227985
2803,U02710,PT College Kotla,28.569817,77.22655
2805,DC0085,Humayun Road Khan Mkt Metro Stn,28.6059,77.2259
2806,U00014,Issapur Xing,28.5699,76.8756
2807,DC4419,Ghuman Hera Village,28.532153,76.922323
2808,U03007,IG Stadium,28.633633,77.24665
2809,U02027,Khalsa College,28.6552,77.1881
2810,U02773,Krishi Vihar,28.5467,77.229683
2811,U00477,Rajdhani Park,28.682033,77.047567
2812,U02915,Pragati Maidan Gate 5,28.617767,77.240467
2813,U01504,Guru Govind Singh College,28.697933,77.151517
2814,U03687,NHW-24 Xing (Gazipur Xing),28.626833,77.316633
2816,U00733,C-2 Janak Puri,28.61574,77.081582
2817,U01999,Shastri Nagar A Block,28.67305,77.186467
2818,U01664,Kanhaiya Nagar,28.680933,77.165433
2820,U02957,Batra Hospital / Satya Narayan Mandir,28.5124,77.2433
2821,U01551,Prem Bari Pull,28.700017,77.158467
2822,U01381,F Block Kirti Nagar,28.6513,77.1409
2823,DC3590,New Usman Pur Pusta No-1,28.679983,77.256183
2824,U03380,Shakarpur Crossing,28.635367,77.28495
2825,U02663,Shivaji Park,28.638735,77.224176
2826,U99867A,ESI Hospital Okhla,28.51529,77.281062
2828,U01964,RK Puram Sec-3,28.55678,77.18485
2829,U02916,Delhi Gate,28.6414,77.240467
2830,DC4127,St. Lawrence School,28.6524,77.269317
2831,U01469,Inder Puri JJ Colony,28.6336,77.1479
2832,U02318,TB Hospital,28.700567,77.205017
2833,U01246,Madhuvan Chowk,28.7051,77.1298
2834,U01710,R K Puram Sec-5,28.563033,77.16825
2835,U01283,Agarsen Hospital,28.674433,77.1339
2836,U01328,Mahindra Park,28.683383,77.13695
2837,U02607,CGHC Dispensary,28.706,77.2211
2838,U00218,Dichau Chowk,28.617306,76.984157
2839,U00428,Aditi College,28.7942,77.0368
2840,U00362,Shiv Shankar Dharam Kanta,28.6836,77.0162
2841,DC4150,Rang Puri,28.543888,77.115903
2842,DC4542,Ramdev Chowk Pithori Jhori,28.857752,77.092856
2843,DC4442,Daulat Pur Village,28.546759,76.963266
2844,DC3905,Q Block Mangol Puri Terminal,28.687978,77.091856
2845,DC4588,Dilshad Garden GT Road (R-212),28.6765875264662,77.3129341009522
2846,U00769,Seetapuri Extension,28.6118,77.0848
2847,DC4024,Malikpur Crossing,28.552617,76.90765
2848,U02180,Roop Nagar / Shakti Nagar,28.682,77.1983
2849,DC3716,PSRI,28.53145,77.223883
2850,U02227,Saidul-A-Jab,28.52115,77.199983
2851,U02513,Sadhna Enclave,28.5429,77.2149
2852,U02476,S J Madrasa,28.5887,77.2127
2853,U02697,Vivekanand Marg,28.64155,77.22615
2855,U01122,LIG Flats,28.6309,77.1196
2856,U02441,INA Colony,28.5759,77.2102
2857,DC3693,Govindpuri Gali No 5,28.537554,77.261339
2858,U00856,Samalkha More,28.5382,77.0913
2859,U01041,Rohini Sec 5 (Chhotu Ram Park),28.713819,77.109531
2860,U03049,Bhogal,28.5828,77.2511
2861,U02617,Lodhi Colony Market,28.585933,77.221367
2862,U00315H,Harewali Gaon,28.831167,77.007417
2863,DC4465,Mundhela Kalan School,28.605246,76.893756
2864,U03003,I T O Ring Road,28.6264,77.2466
2865,U00327,Kanjhawala Village,28.734185,77.0049
2866,U03439,Okhla Village,28.563283,77.291386
2867,U03139HT,Sarai Kale Khan ISBT,28.591383,77.257767
2868,DC4565,Panchayat Ghar,28.797807,77.031522
2869,U99833A,Punjabi Bagh,28.6755,77.1403
2870,U01802,South Moti Bagh (Ring Road),28.581667,77.174083
2871,DC3927,C-2 Keshav Puram,28.6868,77.153933
2872,U01788,Shastri Nagar Shiv Mandir,28.6717,77.1732
2873,U00647A,Surajmal Stadium,28.682083,77.073
2874,U00328,BSF Camp Chhawla,28.5542,77.0063
2875,U03039,Rajeev Nagar,28.706333,77.25085
2876,U00634,Mahaveer Enclave Part II  and  III,28.603367,77.070983
2877,DC4299,Road No-44 Crossing,28.686426,77.136168
2878,U03502,Press Apartment,28.623,77.2983
2879,DC4253,Tyag Raj Marg,28.608983,77.203067
2880,DC0016,IP College,28.6796666666667,77.2239
2881,U99794,Shivam Plywood,28.735455,77.011987
2882,DC0116,Haldiram,28.519333,77.29515
2883,DC4479,Bharthal Chowk (Bharthal Road),28.554047,77.050225
2884,U02777,Pragati Vihar,28.5873,77.2295
2885,DC3762,Ashram Ring Road,28.574933,77.261667
2886,U01850,Munirka Family Planning,28.553767,77.178867
2887,U03398,Sarita Vihar,28.53205,77.286917
2888,U02385,AIIMS,28.566983,77.20795
2889,U03620,Nand Nagari Terminal,28.6916,77.310467
2890,U00987,Hari Nagar Depot,28.6239,77.1017
2891,U00746PM,Prehladpur Crossing,28.749319,77.084811
2892,U02038,Mohammadpur Village,28.564917,77.18915
2893,DC4339,Police Post,28.577431,77.035333
2894,U00908,B Block Mangol Puri,28.690217,77.095183
2895,DC4213,Shalimar Bagh AE Block,28.708444,77.166393
2896,U03163,Govindpuri Gali No 5,28.5377,77.261217
2897,U00234,Udaseen Ashram,28.621783,76.988067
2898,U03184,Dharampura,28.67085,77.262183
2899,U01645,CPWD Colony Vasant Vihar,28.554992,77.164466
2900,DC3527,ESI Hospital,28.5143,77.281333
2901,U00719,Palam Gaon,28.587067,77.08655
2902,U01973,Railway Museum,28.587,77.1853
2903,U00911,E Block Mangol Puri,28.695467,77.095333
2904,DC3739,Annpurna Mandir,28.7424,77.2467
2905,U01872,Shankar Road,28.638883,77.179283
2906,U03447,Sawarthya Vihar,28.639417,77.29195
2907,U99995,Haiderpur Water Works,28.7214333333333,77.1404
2908,U00402,Dwarka More Metro Station (Terminal),28.618575,77.031707
2909,U01020,Multan Nagar,28.6783,77.105783
2910,U00869,Sundar Apartments,28.665467,77.092433
2911,DC3676,Mangol Puri J Block,28.6981833333333,77.0838333333333
2912,U03404,Krishna Nagar A Block,28.661,77.2878
2913,U02292,GTB Nagar,28.698317,77.206533
2914,U03403,Patpar Ganj Xing,28.6167,77.2878
2915,DC4064,C2B Janakpuri,28.621183,77.088967
2916,U03715,Ram Prastha Temple,28.6631,77.3205
2917,U02078,Lado Sarai,28.522617,77.1937
2918,U02315,Hauz Khas,28.553,77.2049
2919,U03794,New Seema Puri Depot Cluster,28.685417,77.331117
2920,DC4202,Dwarka Sec-6 Telephone Exchange,28.593228,77.070994
2921,U00469,DPS Matiyala,28.60445,77.04625
2922,U01347,Payal Cinema,28.6309,77.1383
2923,U02277,Talkatora Road,28.6222,77.2031
2924,U00602,Nangloi,28.681803,77.067632
2925,DC4133,Le Meridian Hotel / Rajendra Prasad Road,28.619225,77.217521
2926,DC4056,Gokul Puri,28.70175,77.28245
2927,DC4010,Ujwa School,28.57058,76.907393
2929,DC4033,Kalyan Vas,28.619867,77.308767
2930,DC4156,M Block Sarojini Nagar,28.578332,77.189988
2931,U01315,Punjabi Bagh Terminal,28.667383,77.135633
2932,U02252,Roop Nagar / Kamla Nagar,28.6842833333333,77.2023166666667
2934,DC4302,Chander Lok,28.689203,77.135521
2935,U99848,High Court,28.609467,77.2379
2937,U00323,Desu Sub Station,28.72343,77.00463
2938,DC4494,Jharoda Village,28.650914,76.952987
2939,U00143,PVC Market / Sarvodya Kanya Vidhyalaya,28.688013,76.965472
2940,U00644,Dwarka Sec-1 Mahalaxmi Apartment,28.5964,77.0722
2941,U03331,Prem Nagar,28.5036,77.2801
2942,U03393,Mother Dairy,28.619117,77.286333
2943,U02654,Shivaji Park,28.6387,77.224
2944,U03081,Guru Ravi Das Ashram / Tughlaqabad Extension,28.519567,77.2543
2945,U02380,GTB Nagar / Haqiqat Nagar,28.698224,77.207503
2946,U02502,Prithvi Raj Road,28.5933,77.2143
2947,U03048,Delhi Secretariat,28.6283,77.2514
2949,U00928,Tilak Nagar,28.635737,77.096692
2950,DC3599,Jahangir Puri GT Road,28.7251,77.163217
2951,DC4594,PWD Office / Aruna Nagar Ring Road,28.7026,77.2277
2952,U00880,PS Mangol Puri,28.696733,77.092067
2953,U00348,Dariyapur Gaon,28.812601,77.009095
2954,U02812,Sheikh Sarai Phase II,28.533689,77.232139
2955,U03382,Shakarpur Crossing,28.635667,77.284783
2956,U00601,Uttam Nagar / A1 Janak Puri,28.624767,77.06775
2957,DC4471,Mundhela Khurd Village,28.617177,76.893091
2958,DC3722,Udyog Bhawan,28.610467,77.21315
2959,U01889,Natthupura,28.7692,77.1792
2960,DC4571,Sultan Pur Xing,28.756298,77.015464
2961,U03734,Fire Station,28.605317,77.322683
2962,DC3791,Kishan Garh,28.514545,77.164298
2963,U03726,Anand Gram Kusht Ashram,28.688683,77.319083
2964,U02505,Safdurjung Terminal,28.579475,77.214509
2965,U03139,Sarai Kale Khan ISBT,28.587117,77.259117
2966,U02735,Central School Lodhi Road,28.584967,77.228233
2967,DC0088,Raghubir Nagar F Block,28.652233,77.10695
2968,U99980A,Nehru Vihar,28.711517,77.222267
2969,U02440,Ice Factory,28.6678,77.2101
2970,U01437,Loha Mandi,28.640217,77.1455
2972,U03238,Bharat Nagar,28.5666,77.269583
2973,U02220A,Faiz Road,28.6492,77.1998
2974,U99949RB,Rani Bagh,28.684133,77.12625
2975,U00682,Pooth Kalan,28.714233,77.076917
2976,U02523SST,Shivaji Stadium Terminal,28.6323,77.2165
2977,DC0045,Rohini Sec 23 Pkt 1 (Green Hill Aptt.),28.719367,77.084633
2978,DC3685,Shaheen Bagh Thokar No. 5,28.552475,77.299857
2979,U99972,GGS University/ Yamuna Bazar,28.66305,77.23665
2980,NS0271,National Stadium,28.6105,77.2402
2981,DC3662,Shahadara Border (Dilshad Garden Mtr Stn),28.676167,77.321233
2982,U00790,Chhath Park Mangol Puri,28.692415,77.086722
2983,U01766,Sardar Patel Marg,28.5972,77.1714
2984,U03443,Arjun Nagar,28.655933,77.291417
2985,U01463,Britannia (Shakurpur),28.6803,77.1422166666667
2986,U03127,Khajuri,28.704817,77.256617
2987,U02786,Guru Govind Singh University (Kashmere Gate),28.6652,77.2303
2988,DC3808,KD Block Ashok Vihar,28.6904,77.1762
2989,U01054,Maya Enclave BSES Office,28.6204,77.110867
2990,U01658,Jahangirpuri A-Block,28.7286,77.1648
2991,DC4431,Jhul-Jhuli Crossing,28.535372,76.909686
2992,DC0074,Jija Bai Udyogic Sansthan,28.5551,77.2143
2993,U00995,Rohini Sec-3/4 Xing,28.7063,77.1028
2994,DC4239,ESI Hospital,28.666467,77.309633
2995,U01298,JD Block Pitam Pura,28.7014,77.1347
2996,U00350,Baprola Village,28.640883,77.011483
2997,U01601,DCM Chemical,28.665367,77.159933
2998,U02243,PNB Geetanjali,28.529417,77.2014
2999,U03130K,Khajuri,28.7039,77.2562
3001,DC4262,Pandit Park Geeta Colony,28.655,77.276617
3003,U02232,Karol Bagh Terminal,28.6484,77.2007
3005,U00846,Janak Puri B-1 Terminal,28.629833,77.0915
3006,DC3745,Balak Ram Hospital,28.7054,77.2231666666667
3007,U00732,Health Centre,28.591,77.0814
3010,U00403,Karala Village,28.7314,77.0328
3011,DC3768,Jag Jivan Ram Hospital,28.73575,77.172517
3012,DC4219,Shalimar Bagh BJ Block,28.712486,77.159043
3013,U03425,Madanpur Khadar Crossing,28.529383,77.288333
3014,DC4325,Goyla Village,28.587801,77.008562
3015,U01464,Swaroop Nagar GT Road,28.758033,77.147633
3016,U01242,Maya Puri Crossing Ring Road,28.638517,77.129483
3017,U99954,Lodhi Colony,28.584823,77.224524
3018,U10001,Max Muller Bhawan,28.6232,77.2251
3019,U99897,Lodi Colony Corner,28.5908,77.225
3020,U02072A,Sardar Patel Road Xing (11 Murti),28.611,77.1908
3021,DC4411,KharKhari Nahar,28.586969,76.959227
3022,U99614,Begumpur,28.721767,77.06515
3023,U03459,Jagatpuri A Block,28.65185,77.29285
3024,U02556,South Extension,28.5689,77.2181
3025,U03164,Rampuri,28.5379,77.2613
3026,U03413,B R Ambedkar College (Loni Road Xing),28.7013,77.2884
3027,U00690,Dwarka Puri,28.6076,77.078083
3028,U00744,S Block Mangol Puri,28.69252,77.082318
3029,U02202,Guru Govind Singh Marg,28.6552,77.199
3030,U02070,Model Town II,28.70425,77.190633
3031,U01921,Mehrauli Terminal,28.5220727789095,77.1830966937688
3032,U00637,SFS Flats Sec-2 Power House,28.5999,77.0714
3033,U01831,Mohan Singh Market,28.5666,77.176
3034,U01229,ESI Hospital,28.65915,77.128767
3035,U02304,SJ Hospital,28.5697,77.204383
3036,U03188,Mata Mandir New Friends Colony,28.564313,77.264526
3037,U02064,Upper Ridge Road,28.632183,77.190317
3038,U01951,Bhartiya Sadhu Samaj,28.603917,77.1845
3039,DC0002,B-5 Rohini Som Bazar,28.71363,77.104841
3040,U99722,Pitam Pura KD Block,28.7002,77.1411
3041,U03340,Kanti Nagar Extension,28.6704,77.2809
3042,U02465,Udyog Bhawan,28.61275,77.211917
3043,U03705,Kalyan Puri Terminal,28.615317,77.319492
3044,U03654,R Block Dilshad Garden,28.6793,77.3145
3046,U99932,Pant Nagar,28.583417,77.240467
3047,DC0071,Udyog Bhawan,28.6106,77.2131
3048,NS0347,East Punjabi Bagh,28.6712,77.1392
3049,DC4342,St Marry School,28.573412,77.048418
3050,DC4242,PS Chankya Puri,28.603733,77.1965
3051,U03709,Dallu Pura,28.608617,77.319983
3052,U02482,Dispensary Paharganj,28.6452,77.2133
3053,U01451,Badli Xing,28.7288,77.1463
3054,U01803,R Block Rajendra Nagar,28.63445,77.174067
3055,U02827,Central School (KV),28.5597,77.2335
3056,U00393,Mundka Village (Metro Station),28.682583,77.0299
3057,U03520,Badarpur M B Road,28.4995,77.299267
3058,U00967,G Block Hari Nagar,28.627917,77.100067
3059,U02784,Baroda House,28.615895,77.230278
3060,U01004A,D Block Janakpuri,28.6109,77.1038
3062,U01145,Geeta Ashram,28.5919,77.1211
3063,U02275,Raj Nagar,28.569617,77.20145
3064,U01115,Bobby Shop,28.62395,77.1186
3065,U02829,Kouria Bridge,28.6603,77.2337
3066,U02583,Eastern Court,28.6222,77.2192
3067,U99851,IP College,28.680515,77.223439
3068,U03042,Pragati Power Station,28.6151,77.2502
3069,DC3973,Rewla Taj Pur More,28.578167,76.996483
3070,DC3728,Pusta No 2 Sonia Vihar,28.721467,77.243933
3071,U02160,Sant Nagar A-1,28.7377,77.1973
3072,DC3579,Zero Pusta,28.677817,77.25655
3073,U99957,Jal Vihar Terminal,28.578499,77.245779
3074,DC0094,JLN Stadium (Sunehripulla Depot),28.591833,77.232383
3075,U99990,MCKR Hospital/Central School,28.564846,77.233447
3076,DC4265,Khureji Khas,28.64655,77.279117
3077,DC4514,Jharoda Border,28.65839,76.948102
3079,DC4365,Nangloi Post Office,28.67965,77.0659
3081,U01093,Kali Mata Mandir,28.697567,77.116267
3082,U02977,Police Station Nizamuddin (Dargah),28.591467,77.2451
3083,U99959,Delhi Jal Board Lajpat Nagar,28.570583,77.246683
3084,DC4036,Kalyan Vas,28.61915,77.3089
3085,DC0138,Maa Anand Mayee Marg,28.5061,77.27835
3086,U00335,Baprola School,28.63835,77.007967
3087,U02695,Akbar Road,28.6106,77.2261
3088,DC4013,Ghumanhera Crossing,28.5352,76.909367
3089,DC3539,Nawada Gaon,28.620256,77.044304
3090,DC4531,DJB,28.815521,77.058038
3091,U03465,Prehlad Pur,28.500583,77.293883
3092,DC3990,Babar Pur Ext,28.690633,77.279833
3093,DC4554,Maharaja Agrassen School,28.835906,77.079333
3094,U02701,Nehru Vihar Xing,28.708883,77.225983
3095,U03658,Gagan Cinema,28.6954,77.3151
3096,U01341,Badli Railway Staion,28.745117,77.137367
3097,DC4577,Malik Pur Village,28.552417,76.902717
3098,U02503,PS Parliament / Jantar Mantar,28.625216,77.21398
3099,DC4053,Vijay Park,28.694417,77.280517
3100,DC0126,Akshardham Temple / Pusta Crossing,28.612617,77.281967
3101,DC4491,Jharoda Village,28.650932,76.952792
3102,U00485,Poothkhurd Village,28.772317,77.0489
3103,U00051,Rawta Crossing,28.600134,76.915856
3104,U02879,Jama Masjid,28.651317,77.237833
3105,U00764,C-2 Janakpuri,28.6216,77.0841
3106,DC0105,Jagriti Enclave,28.652867,77.307967
3107,U01671,Dhaula Kuan,28.598667,77.16315
3109,U01830,Nimri Colony,28.68105,77.175933
3110,DC3950,MTNL Saraswati Vihar / Aayuddh Bhandar,28.6881,77.1121666666667
3111,U02609,Khyber Pass,28.6906,77.2211666666667
3112,U02051,Ahinsa Sthal,28.521483,77.189733
3113,U01598,C-8 Keshav Puram,28.689131,77.159525
3114,DC3930,Shivani Apartments/ Kunj Vihar Sector-12 Dwarka,28.594217,77.035867
3115,U02683,Barakhamba Metro Station,28.6297,77.2252
3116,DC3602,Sanjay Gandhi Transport Nagar,28.738233,77.15425
3117,U99830,Bamnoli Power Station,28.541946,77.018399
3118,U99601,Swami Malai Mandir,28.568467,77.164833
3119,U03352,Apollo Hospital,28.539567,77.282917
3121,U00582,Barwala School,28.759233,77.062833
3122,U02600,South Extension,28.5688,77.2206
3123,DC4468,Mundhela Kalan Village,28.60968,76.893581
3125,DC3868,Aman Puri,28.672979,77.059922
3126,U02933,CGO Complex,28.586133,77.241067
3127,U03786,New Kondali A1 Crossing,28.602845,77.32943
3128,U99631,Inder Enclave,28.701333,77.04975
3129,U99870,Sheikh Sarai Phase II,28.53305,77.230667
3130,U03574,Saini Enclave,28.649666,77.305083
3131,U02415,Shaheed Bhagat Singh Marg,28.6334,77.2092
3133,U01417,Punjabi Bagh Terminal (Rohtak Road),28.67315,77.143517
3134,U99767,Gurudwara Bangla Sahib,28.6284,77.2097
3135,U01294,Pitam Pura Power House,28.7077,77.1345
3136,U01724,Vasant Vihar Poorvi Marg,28.5613,77.169
3137,U01456,Inder Puri (Krishi Kunj),28.6372,77.1466
3138,U01345,Pitampura CD-Block,28.7063,77.1382
3139,U02096,Thana DB Gupta Road,28.6526,77.1928
3140,DC0042,Dera Satguru Sewaram Sahai Sec 24/25,28.72965,77.094683
3141,U00781,Dabri Xing,28.6128,77.0862
3142,U01565,Vasant Kunj sec-B1,28.522167,77.1576
3143,U01456IP,Inderpuri (Krishi Kunj),28.63765,77.146312
3144,U00890,Peera Garhi Depot,28.676017,77.093967
3145,U02084,Safdarjung Enclave,28.566217,77.1916
3146,U01125,PS Mayapuri,28.625367,77.11975
3147,U02813,ISBT Ring Road,28.669083,77.232383
3148,U01059,Puspanjali Enclave,28.6958,77.1115
3149,U02640,Max Mueller Marg,28.5955,77.2235
3150,U02561,Khirki Village,28.530183,77.21835
3151,U03251,Sukhdev Vihar Depot,28.55465,77.2717
3152,U99951,Lodhi Colony,28.584867,77.224367
3153,DC4259,Mandi House,28.624995,77.230178
3154,DC3933,National Law University Delhi,28.598545,77.022579
3155,DC3953,West Enclave Terminal,28.691667,77.101167
3156,U02086,Laxmi Vihar,28.76015,77.1910833333333
3157,U02791,Guru Govind Singh University (Kashmere Gate),28.6657,77.23
3158,U00364,BakkarWala Crossing,28.6439,77.0167
3159,U01510AF,Air Force HQ / Subroto Park,28.583117,77.145967
3161,U99739,Nauroji Nagar,28.56935,77.19505
3162,DC4428,Ghuman Hera DTC Depot,28.534141,76.915295
3163,U00558,Madhu Vihar,28.5998,77.0612
3164,U01292,Naraina Vihar,28.624483,77.135217
3165,DC4328,Taj Pur More,28.58327,77.011534
3166,DC3742,Chauhan Patti (Terminal),28.754767,77.24325
3167,DC4451,Rewla Tajpur Crossing,28.572594,76.980927
3168,DC3642,I O L,28.575183,77.1169
3169,U03047,Garhi Village,28.5624,77.251417
3170,U01686,JJ Colony Wazir Pur,28.678733,77.166367
3171,DC4551,New Anaj Mandi,28.838335,77.091413
3172,U00850,Q-Block Mangolpuri,28.688,77.0906
3173,DC4030,Mitraon Village (Kair Village Road),28.608525,76.944876
3174,DC4159,KD Block Ashok Vihar,28.69125,77.17595
3175,U02951,Lajpat Nagar 2 Ring Road,28.56525,77.243
3176,U02355,Bhai Parmanand Colony,28.7103,77.2072
3177,DC3967,Kapashera More,28.5306,77.086317
3178,DC4222,Mukundpur (Changeover Point),28.725045,77.182483
3179,U01436,Loha Mandi,28.641383,77.145217
3180,U01023,Lajwanti Garden (Nangal Raya),28.614,77.1065
3181,U03444,Arjun Nagar,28.6564,77.2915
3182,U01525,Campa Cola,28.6628,77.1535
3183,U02066,Kalyan Vihar Terminal,28.6932166666667,77.1989333333333
3184,U02045,Ahinsa Sthal,28.520483,77.189433
3185,U02242,Roshnara Bagh,28.6733,77.2018
3186,U02928PM,Supreme Court / Pragati Maidan Metro Station,28.623883,77.240933
3187,DC4368,Narain DharamKanta,28.670717,77.05775
3189,DC4345,Dwarka Sec-19 Modern School,28.578167,77.0542
3190,DC3871,Kotla Vihar Phase I,28.650935,77.03028
3191,DC4199,President Cabinet Apartments,28.582753,77.062279
3192,U01487,Telephone Exchange,28.6861,77.151
3193,U02621,Firoz Shah Road,28.621,77.2215
3194,U01728,Ashok Vihar I Block,28.6853,77.169
3195,U00723,Brahm Shakti Hospital,28.7125,77.0805
3196,U02165,RML Hospital,28.624508,77.197924
3198,U00460,Industrial Area Bawana Sec 3,28.7804,77.044017
3199,U00078,Mitraon School,28.606975,76.93931
3200,U02223,Geetanjali Enclave,28.530317,77.199633
3201,U02181,Burari Crossing,28.728567,77.199267
3202,U02923,Pant Nagar,28.5841,77.2406
3204,U02097,Thana DB Gupta Road,28.6527,77.1932
3205,U03266,Sukh Dev Vihar,28.5586,77.273
3206,DC3748,Brahm shakti hospital,28.712467,77.080633
3207,U02336,Maurice Nagar II,28.6865,77.205567
3208,U99803,Kirodi Mal College,28.683783,77.207633
3209,DC3556,Health Center,28.614117,76.985317
3210,U03642,Govt School Dilshad Garden,28.6812,77.3132
3211,U99859,Garrison Engg.,28.605202,77.146802
3212,U00724,New Dwarka Road Seetapuri,28.6093,77.0808
3213,U99807,Desu Office,28.7325,77.0284
3214,U03366,Lal Kuan,28.5026,77.284517
3216,U01183,Madipur Village,28.67555,77.125183
3217,DC4591,Majnu Ka Teela Ring Road,28.69771,77.22716
3218,U03160,Rainy Well,28.628017,77.26095
3219,U02643,Gopal Pur Crossing / Jagatpur Crossing,28.7192,77.22395
3220,DC3811,Rajghat Cluster Depot,28.643931,77.252592
3221,U02576,Windsor Place,28.6178,77.2187
3222,DC4305,Harsh Vihar,28.694736,77.134546
3223,U02470,Indra Vihar,28.7064,77.2121
3224,DC3596,ISBT Nityanand Marg,28.668217,77.2253
3225,U00307,AirForce Station (BaniCamp),28.633911,77.003107
3226,U00554,Qamruddin Nagar,28.675011,77.061622
3228,DC3725,Pusta No 1 Sonia Vihar,28.7189,77.24325
3230,U01519,Monitoring  and  Receiving Station,28.6262,77.1534
3231,U03141,East of Kailash C-Block,28.561933,77.258033
3232,DC4113,Geeta Colony,28.655133,77.2736
3233,U03742,Harsh Vihar,28.698617,77.322167
3234,U02874,Supreme Court,28.621867,77.237717
3236,DC3682,Ram Jas Road,28.65923333,77.19113333
3238,U03749,Harsh Vihar,28.698717,77.321633
3239,U03667,Gazipur Depot,28.64195,77.315817
3240,DC4557,Sanoth Xing / Ghogha Xing,28.819627,77.06351
3241,DC3659,Shiva Enclave/ New Multan Nagar,28.6772,77.111767
3242,DC3874,PS Ranhola,28.653617,77.035433
3243,DC4534,Bharat Mata School,28.832534,77.076244
3244,U00516,Karala Patshala,28.726567,77.053367
3245,U03648,Nand Nagari E-Block,28.6934,77.31375
3246,U02659,Statesman House,28.6303,77.2239
3247,U00055,Rawta Crossing,28.600355,76.915846
3248,U03059,Majeedia Hospital,28.514917,77.252817
3249,U01670,R K Puram Sec-8,28.5697,77.1656
3250,U02590,Prithviraj Road Crossing,28.597467,77.219904
3251,U02736,Shajahan Road UPSC,28.608467,77.227917
3252,U03292,Okhla Tank,28.548017,77.276567
3253,U00624,Tilak Pul,28.6213,77.07
3254,U01454,Moti Nagar Industrial Area,28.6588833333333,77.1466833333333
3255,DC4196,President Cabinet Apartments,28.582817,77.062683
3256,DC3993,Madarsa / Welcome Seelam Pur,28.680583,77.273917
3257,DC0096,Amir Khusro Park / Oberoi Hotel,28.5965,77.2407
3258,U01066,Beriwala Bagh,28.631183,77.112167
3259,U02314,CV Raman ITI,28.726517,77.204483
3260,U01610,Shalimar Bagh,28.701283,77.161967
3262,DC4050,Ganpati Mandir,28.60315,77.3247
3264,DC0108,New Rajdhani Enclave,28.642117,77.29625
3265,U00565,Kamruddin Nagar,28.6747,77.0611
3266,DC4096,Girls School Vivek Vihar,28.669433,77.3187
3267,DC3947,Shakur Basti,28.683417,77.133967
3268,DC4488,CRPF Jharoda 2,28.638323,76.960789
3269,DC0068,Khayala More/ Subhash Nagar Crossing,28.643167,77.106983
3270,U02390,Malka Ganj Terminal,28.677207,77.207926
3271,U02848,MCKR Hospital,28.5691,77.2354
3272,U03476,Jagatpuri F-Block,28.648036,77.295529
3273,U02642,I P College,28.6805,77.2232
3274,U00422,Dwarka Sec 13,28.605733,77.03635
3275,U02896,Savitri Cinema (E Block Gurudwara),28.540617,77.239992
3276,U01843,Rajendra Place,28.6425,77.1773
3277,U00559,Barwala Village,28.760383,77.060717
3278,U01847,Munirka DDA Flats,28.555517,77.176717
3279,U02437,Aakashwani Bhawan (Imtiyaz Ali Road),28.62065,77.2098
3281,U01533,Ram Pura (Ashoka Park),28.671183,77.15675
3282,U40002A,Prince Apartment,28.6308,77.3007
3283,U02370,Gol Daak Khana,28.6731,77.2071
3284,U00738,Kapashera Border,28.521848,77.082424
3285,U00576,Lokesh Cinema Nangloi JJ Colony,28.68215,77.058833
3286,DC3785,E-2 Vasant Kunj,28.539083,77.1325
3287,U00658,Rohini Sec 20/21 More,28.7155,77.0743
3288,U99827,Shiv Murti II/NH-8 Dawrcka More,28.534917,77.108283
3289,DC4073,Nathu Colony,28.689441,77.301321
3290,U02263,New Police Line,28.699533,77.203017
3291,DC4700,S Block Greater Kailash- II,28.528958,77.245044
3292,U99634,Bhagat Singh Nagar,28.7249,77.0293
3293,U02778,Krishi Vihar,28.5461,77.2297
3294,U03281,Welcome Colony,28.672683,77.279167
3295,U03323,Harkesh Nagar,28.543767,77.2793
3296,U01868,Azadpur Terminal,28.707867,77.179567
3297,U03534,Kotla Village,28.6132,77.3014
3298,U00695,District Centre Najafgarh Road,28.630283,77.07825
3299,DC0039,Rithala Village,28.725886,77.100438
3300,U00645,Oxford School,28.6381,77.0721
3301,U02075,Akbar Bhawan,28.5863,77.1908
3302,U02969,Ambedkar Stadium Terminal,28.639636,77.24375
3303,DC4385,AirForce Station (BaniCamp),28.634,77.003
3304,U02447,Aakashwani Bhawan,28.620532,77.210575
3305,U01795,Munirka Village,28.55885,77.173717
3307,U01683,Vasant Kunj Sec-A ILBS,28.511667,77.16655
3308,U00297,Jai Vihar,28.631506,77.000569
3309,U01797,Sangam Cinema,28.5736,77.1737
3310,U00753,T Block Mangol Puri,28.6896333333333,77.0820166666667
3311,U02572,Mall Road,28.693783,77.218667
3312,U03147,ISBT Sarai Kale Khan,28.5911,77.258083
3313,U01587,Vasant Village / Shani Mandir,28.5755,77.158967
3314,U02382,Azad Market,28.6627,77.2075
3315,U03034,Nehru Place,28.54755,77.249444
3316,U02273,Filmistan,28.6593,77.2029
3317,U99850,High Court,28.6093,77.23845
3318,U01142,Geeta Ashram,28.5922,77.1211
3319,DC3645,Dwarka Flyover / Palam Village,28.583833,77.091417
3320,U01379,Sri Nagesh Garden,28.59655,77.14065
3321,DC4448,Kangan Heri - I,28.548293,76.988737
3322,U03708,Gazi Pur DDA Flats,28.623,77.3198
3323,DC3911,Sarai Rohilla Flyover,28.667017,77.181867
3324,U04005A,Kirbi Place,28.604833,77.128283
3325,U01594,Golf Club,28.592967,77.158483
3326,U02237RRS,Ravinder Rang Shala,28.6407,77.1951
3327,DC4425,KharKhari Jatmal,28.582168,76.957902
3328,U03091,Indraprastha Park,28.5998,77.2549
3329,DC3970,Bijwasan Railway Crossing,28.533117,77.055783
3330,U01392,Kohat Enclave Metro Station,28.6972,77.1421
3331,U01462,ESI Dispensary/CGHS Dispensary,28.660583,77.147367
3332,DC4362,Ibrahim Pur More,28.775793,77.179669
3333,U03122,Ashram (Hari Nagar),28.573817,77.257333
3334,U01696,Bhalaswa Xing,28.73745,77.1666166666667
3335,U02017,State Bank Colony,28.6956,77.1878
3336,U03367,Ansari Health Care,28.560917,77.281183
3337,U02751,Siri Fort Road,28.554683,77.228567
3338,DC4511,Satya Puram Jharoda,28.663282,76.944684
3340,DC0091,Holy Child School,28.6506,77.1139
3341,DC3582,Jagjit Nagar,28.68625,77.25435
3342,U00231,Chawla Stand Najafgarh,28.6084,76.9855
3343,U03375,Samaspur Jagir Village (Pusta Xing),28.615983,77.28535
3344,U00854,Peera Garhi Metro Station,28.679667,77.092833
3345,U02682,Civil Line Metro Station,28.616617,77.225017
3346,DC4119,Lalita Park,28.63205,77.2709
